[{"country":"United States","createdAt":"Tue Dec 25 08:06:44 +0000 2018","index":1,"latitude":37.193164,"longitude":-122.035311,"screen_name":"JeffJernigan9","sentiment":1,"text":"@InsideEVs Tesla Super chargers working hard this holiday season https:\/\/t.co\/MfBOodNDpo","timestamp":"1545725204344","user_ID":"1075061565387231233"},{"country":"Germany","createdAt":"Fri Feb 01 16:06:33 +0000 2019","index":2,"latitude":52.338079,"longitude":13.088304,"screen_name":"MitchBarnes97","sentiment":1,"text":"@elliotjtp @jacksonharry97 If he gave me a Tesla I would","timestamp":"1549037193345","user_ID":"409537347"},{"country":"United States","createdAt":"Sat Feb 02 17:15:12 +0000 2019","index":3,"latitude":30.127892,"longitude":-97.928935,"screen_name":"egudenas1","sentiment":1,"text":"@FusionptCapital I agree, would need a major catalyst that flips the script. I actually think $NFLX and $TSLA will\u2026 https:\/\/t.co\/VXYvfb2cmd","timestamp":"1549127712150","user_ID":"4328419512"},{"country":"United States","createdAt":"Wed Jan 16 23:17:24 +0000 2019","index":4,"latitude":37.845953,"longitude":-122.324818,"screen_name":"J_Olsh_15","sentiment":1,"text":"@TechCrunch @erica_grant @elonmusk downsizing is key \ud83d\udc4f\ud83c\udffc","timestamp":"1547680644372","user_ID":"341820295"},{"country":"United States","createdAt":"Wed Jan 30 23:40:07 +0000 2019","index":5,"latitude":42.676375,"longitude":-73.832933,"screen_name":"stephenpallotta","sentiment":-1,"text":"@elonmusk why did \"global economic recession\" have to come up so frequently in that call? $tsla","timestamp":"1548891607704","user_ID":"18199493"},{"country":"United States","createdAt":"Tue Jan 01 07:18:35 +0000 2019","index":6,"latitude":33.704538,"longitude":-118.668404,"screen_name":"tonyqin58","sentiment":1,"text":"@elonmusk @Tesla Happy new year","timestamp":"1546327115333","user_ID":"1888550539"},{"country":"United States","createdAt":"Wed Jan 16 19:50:07 +0000 2019","index":7,"latitude":32.53962,"longitude":-117.282538,"screen_name":"Manic_Marge","sentiment":1,"text":"@gwestr @JohnnaCrider1 @Tesla @GerberKawasaki @scottwww @LeilaniMunter \ud83d\udcaf","timestamp":"1547668207141","user_ID":"596204926"},{"country":"Germany","createdAt":"Tue Jan 22 14:18:14 +0000 2019","index":8,"latitude":52.338079,"longitude":13.088304,"screen_name":"samsmeep","sentiment":1,"text":"This is just a start to show these great Auto or Diesel auto companies what Tesla can do in their town @elonmusk\u2026 https:\/\/t.co\/dx2nGiaJMR","timestamp":"1548166694099","user_ID":"961106194025926656"},{"country":"Australia","createdAt":"Mon Dec 31 02:17:33 +0000 2018","index":9,"latitude":-34.628602,"longitude":150.743945,"screen_name":"TeslaGong","sentiment":1,"text":"Auto Park : Tesla Model X https:\/\/t.co\/YFZeCITpLh @Tesla @elonmusk Autopark works brilliantly for parallel parking.\u2026 https:\/\/t.co\/2qvgAJWnRw","timestamp":"1546222653924","user_ID":"1008296232261783552"},{"country":"United States","createdAt":"Tue Jan 01 04:49:50 +0000 2019","index":10,"latitude":46.9767,"longitude":-123.813787,"screen_name":"borperbingle","sentiment":1,"text":"Day 128: Happy New Years everyone, be safe! @elonmusk @Tesla @mayemusk https:\/\/t.co\/eWE1H43r78","timestamp":"1546318190432","user_ID":"879945641761189890"},{"country":"United States","createdAt":"Sat Jan 12 17:04:55 +0000 2019","index":11,"latitude":33.704538,"longitude":-118.668404,"screen_name":"EBatchiyski","sentiment":-1,"text":"This assholes need to be shot with their own guns. I bet you they are the same kind as the ones that attack Tesla c\u2026 https:\/\/t.co\/JVEWProWdP","timestamp":"1547312695093","user_ID":"3310346965"},{"country":"United States","createdAt":"Wed Jan 09 21:31:50 +0000 2019","index":12,"latitude":40.570842,"longitude":-74.041878,"screen_name":"iosonovlado","sentiment":1,"text":"making a pit stop to lightheartedly ask when a full-sized SUV will be available. (@ Tesla Motors in Brooklyn, NY) https:\/\/t.co\/hjalYpgxU2","timestamp":"1547069510835","user_ID":"30619344"},{"country":"United States","createdAt":"Tue Jan 01 20:48:59 +0000 2019","index":13,"latitude":44.861721,"longitude":-93.319039,"screen_name":"arnej247365","sentiment":1,"text":"Tesla will takeover car market.","timestamp":"1546375739216","user_ID":"796963782"},{"country":"United States","createdAt":"Sun Jan 13 03:56:37 +0000 2019","index":14,"latitude":37.356771,"longitude":-122.117916,"screen_name":"sfingerhut","sentiment":1,"text":"Overheard \"I would never buy a #Volt, or an American car, so I'll go electric with a #Tesla... shit, Tesla is an American car.. mind blown\"","timestamp":"1547351797711","user_ID":"17869978"},{"country":"United States","createdAt":"Sun Jan 20 20:51:06 +0000 2019","index":15,"latitude":35.290722,"longitude":-97.768683,"screen_name":"emmacsteedman","sentiment":1,"text":"*Talking about cars we like*\n#BrooksDavid: \u201cA Tesla is just more me...\u201d\nOh...","timestamp":"1548017466152","user_ID":"2655196437"},{"country":"United States","createdAt":"Sat Dec 29 21:01:31 +0000 2018","index":16,"latitude":44.948501,"longitude":-92.984869,"screen_name":"gemra87","sentiment":1,"text":"White only models Elon!!! https:\/\/t.co\/qKQvDmxyOE","timestamp":"1546117291868","user_ID":"869245071211626496"},{"country":"United States","createdAt":"Fri Dec 28 04:53:24 +0000 2018","index":17,"latitude":30.355644,"longitude":-85.605166,"screen_name":"MarkSupic","sentiment":1,"text":"@BillMurray @realDonaldTrump Tesla shared his brilliance and saw that future was Alternating Current, not Direct Cu\u2026 https:\/\/t.co\/voKaUAeEBT","timestamp":"1545972804811","user_ID":"3303555997"},{"country":"United States","createdAt":"Tue Dec 25 19:35:53 +0000 2018","index":18,"latitude":33.204608,"longitude":-111.842244,"screen_name":"T_Walt_","sentiment":1,"text":"Watching Bird Box has motivated me to buy a Tesla solely for the autopilot feature @elonmusk","timestamp":"1545766553010","user_ID":"1607527026"},{"country":"United Kingdom","createdAt":"Tue Jan 15 23:59:16 +0000 2019","index":19,"latitude":51.343417,"longitude":-0.080526,"screen_name":"crazycitychick","sentiment":1,"text":"Tesla model X dances to music https:\/\/t.co\/o8xJtfv1pL via @YouTube\n\nHow cool is this car .. \ud83e\udd70\ud83e\udd70","timestamp":"1547596756232","user_ID":"244888389"},{"country":"Switzerland","createdAt":"Fri Dec 28 18:50:33 +0000 2018","index":20,"latitude":47.212454,"longitude":8.703449,"screen_name":"NuovaRealta","sentiment":1,"text":"Plus in Europe Tesla drivers can use the regular CCS charging network too! So this should make long distance travel\u2026 https:\/\/t.co\/onK718uyYW","timestamp":"1546023033376","user_ID":"783475735"},{"country":"Maldives","createdAt":"Sun Dec 23 20:40:23 +0000 2018","index":21,"latitude":-0.703688,"longitude":72.693064,"screen_name":"iamrishvan","sentiment":1,"text":"Tesla Roadster surprisingly wins 24-hour electric race https:\/\/t.co\/y7ZNMuH57x https:\/\/t.co\/TKGI3FlUyt","timestamp":"1545597623914","user_ID":"433233229"},{"country":"United States","createdAt":"Thu Dec 27 13:50:03 +0000 2018","index":22,"latitude":34.117025,"longitude":-118.198346,"screen_name":"RiinFTW","sentiment":1,"text":"#tbt to when noelbhungry @ifcyipes and I were watching Snaketits\u2019 model X dance. \n\nteslamotors can you change the s\u2026 https:\/\/t.co\/dHj8e7XjKf","timestamp":"1545918603733","user_ID":"56271718"},{"country":"United States","createdAt":"Mon Dec 31 06:29:56 +0000 2018","index":23,"latitude":29.141956,"longitude":-98.778559,"screen_name":"adamxvillela","sentiment":-1,"text":"hahahah tesla is so low on this list","timestamp":"1546237796586","user_ID":"879932918117826560"},{"country":"United States","createdAt":"Thu Jan 03 05:08:17 +0000 2019","index":24,"latitude":38.973575,"longitude":-77.096707,"screen_name":"JigarShahDC","sentiment":1,"text":"@RRapier @Apple @Tesla @TheEnergyGang @apple is short on innovation and high on operating excellence. Opposite for @tesla...","timestamp":"1546492097998","user_ID":"20941733"},{"country":"Kenya","createdAt":"Fri Jan 18 11:07:44 +0000 2019","index":25,"latitude":-1.389053,"longitude":36.664573,"screen_name":"akams_","sentiment":-1,"text":"Tesla to cut headcount by 7% after \u2018most challenging year\u2019 - https:\/\/t.co\/BKv63x6TqY via @FT","timestamp":"1547809664366","user_ID":"162738412"},{"country":"Australia","createdAt":"Tue Jan 01 02:29:52 +0000 2019","index":26,"latitude":-27.767441,"longitude":152.668523,"screen_name":"GenericGene","sentiment":1,"text":"Having test driven Tesla\u2019s with auto pilot &amp; ludicrous performance &amp; experiencing regenerative braking electric car\u2026 https:\/\/t.co\/mfsyxGTKQa","timestamp":"1546309792801","user_ID":"15451878"},{"country":"United States","createdAt":"Mon Jan 14 02:04:52 +0000 2019","index":27,"latitude":33.788913,"longitude":-118.017789,"screen_name":"ejsab722","sentiment":-1,"text":"@Tesla Why? Not making them any longer?","timestamp":"1547431492539","user_ID":"265228388"},{"country":"United States","createdAt":"Sun Dec 30 15:49:32 +0000 2018","index":28,"latitude":41.187054,"longitude":-73.508143,"screen_name":"leahhhibbert","sentiment":1,"text":"WOOO Tesla here I come\ud83d\ude29\ud83d\udca6","timestamp":"1546184972825","user_ID":"4004436831"},{"country":"Australia","createdAt":"Thu Dec 27 06:16:38 +0000 2018","index":29,"latitude":-27.767441,"longitude":152.668523,"screen_name":"ChrisEgginton","sentiment":1,"text":"@Rossco65 @Jansant @simonahac @WATAG10 @elonmusk All good news #EV #renewables","timestamp":"1545891398966","user_ID":"400495760"},{"country":"United States","createdAt":"Fri Dec 28 02:40:14 +0000 2018","index":30,"latitude":33.704538,"longitude":-118.668404,"screen_name":"RexRoi3D","sentiment":1,"text":"@korkskrew2 @Tesla Hi! Check out the Tesla Model 3 center console tray that we have designed.\nhttps:\/\/t.co\/ijH1YLpJpZ","timestamp":"1545964814510","user_ID":"1035968038980317184"},{"country":"United States","createdAt":"Sun Jan 13 01:59:00 +0000 2019","index":31,"latitude":33.704538,"longitude":-118.668404,"screen_name":"jasoncmiller","sentiment":1,"text":"If I ever owned a Telsa, the FIRST thing I would do is blast Telsa in it! #teslaband #teslacar @Tesla @TeslaBand","timestamp":"1547344740941","user_ID":"19873252"},{"country":"United States","createdAt":"Mon Dec 31 01:24:11 +0000 2018","index":32,"latitude":47.495315,"longitude":-122.436232,"screen_name":"contactingjames","sentiment":1,"text":"Overheard: You can sit in a Tesla 2 times. Then you can get into a Tesla anywhere in the world and it will know you. Really?! If so....\ud83d\ude33\ud83d\ude44","timestamp":"1546219451251","user_ID":"295488635"},{"country":"United States","createdAt":"Wed Dec 26 01:07:03 +0000 2018","index":33,"latitude":41.644102,"longitude":-87.940033,"screen_name":"gregwharris","sentiment":1,"text":"@toxicpath @elonmusk City gridlock is still a problem. \n\nSo should we invest in more relatable, efficient transit w\u2026 https:\/\/t.co\/HVUVbYmyJG","timestamp":"1545786423472","user_ID":"125817355"},{"country":"United States","createdAt":"Wed Jan 02 21:50:02 +0000 2019","index":34,"latitude":33.137357,"longitude":-96.803319,"screen_name":"sethpascale","sentiment":1,"text":"@ElectrekCo @FredericLambert I was at the Supercharger in Kansas City late one night and had two pickup trucks brig\u2026 https:\/\/t.co\/HQAfdzKS0b","timestamp":"1546465802003","user_ID":"16413145"},{"country":"United States","createdAt":"Sun Jan 06 08:00:54 +0000 2019","index":35,"latitude":33.685766,"longitude":-117.071232,"screen_name":"Teddy75Gonzalez","sentiment":1,"text":"My friend said  she couldnt see me in a tesla... Like watch me stunt in one just to show them up \ud83d\ude14","timestamp":"1546761654153","user_ID":"792708877"},{"country":"United States","createdAt":"Sat Dec 29 10:44:09 +0000 2018","index":36,"latitude":30.23105,"longitude":-95.679001,"screen_name":"Devinenders","sentiment":1,"text":"Yea my sleeping schedule is fucked up but look I own a Tesla and I have wireless Apple headphones tho, like sit the\u2026 https:\/\/t.co\/V1MvMi6q98","timestamp":"1546080249200","user_ID":"18236340"},{"country":"United States","createdAt":"Tue Jan 08 01:23:42 +0000 2019","index":37,"latitude":37.512567,"longitude":-122.355038,"screen_name":"dogsoftesla","sentiment":1,"text":"@AvaSchadt @Tesla @elonmusk @mayemusk @NalyneLunati @TeslasocialC @Teslarati The best ride quality &amp; handling \ud83d\udc4c","timestamp":"1546910622703","user_ID":"1048345748079751168"},{"country":"People's Republic of China","createdAt":"Sat Feb 02 16:39:35 +0000 2019","index":38,"latitude":30.69094,"longitude":120.858322,"screen_name":"ShanghaiJayin","sentiment":1,"text":"@tomi @phoennix10 One Cargo Plane full of Model 3 Performance to China was for Media Car and Test Drive purpose. No\u2026 https:\/\/t.co\/M14P2BCzOk","timestamp":"1549125575395","user_ID":"1082181922606858241"},{"country":"Spanje","createdAt":"Thu Jan 03 05:36:40 +0000 2019","index":39,"latitude":41.939177,"longitude":2.782826,"screen_name":"TheoTerdu","sentiment":-1,"text":"@elonmusk dear mr musk can you please pay attention to my tweet about the bad service of the referral program in Ho\u2026 https:\/\/t.co\/7haRj0Hg09","timestamp":"1546493800478","user_ID":"2424429740"},{"country":"United States","createdAt":"Sun Jan 13 19:13:14 +0000 2019","index":40,"latitude":30.127892,"longitude":-97.928935,"screen_name":"errrykahmayyy","sentiment":1,"text":"10\/10 recommend the Tesla workout leggings, they are so0o comfortable!! Also have the perfect amount of compression\u2026 https:\/\/t.co\/BAvR8qHt9b","timestamp":"1547406794066","user_ID":"110809317"},{"country":"United States","createdAt":"Sat Feb 02 16:54:59 +0000 2019","index":41,"latitude":34.62595,"longitude":-92.521595,"screen_name":"Lil_Kimmel","sentiment":1,"text":"I\u2019m just gonna keep sending David pictures of customized Tesla cars until he breaks down and buys one with me \ud83e\udd37\ud83c\udffc\u200d\u2640\ufe0f\ud83e\udd37\ud83c\udffc\u200d\u2640\ufe0f","timestamp":"1549126499835","user_ID":"220162395"},{"country":"United States","createdAt":"Thu Jan 31 19:10:00 +0000 2019","index":42,"latitude":37.193164,"longitude":-122.035311,"screen_name":"philrem","sentiment":1,"text":"@LouisColeMusic Did you see @Oatmeal\u2019s tribute to Tesla? https:\/\/t.co\/HbJM29ZgGB","timestamp":"1548961800870","user_ID":"14862414"},{"country":"United States","createdAt":"Mon Jan 14 00:54:16 +0000 2019","index":43,"latitude":33.704538,"longitude":-118.668404,"screen_name":"RexRoi3D","sentiment":1,"text":"@iTryTech @Tesla Hi! Check out the Tesla Model 3 Center Console Tray that we have designed. https:\/\/t.co\/zYyzi9YvDu","timestamp":"1547427256230","user_ID":"1035968038980317184"},{"country":"United Kingdom","createdAt":"Mon Dec 24 15:35:01 +0000 2018","index":44,"latitude":54.982911,"longitude":-1.558785,"screen_name":"jasonwarrender","sentiment":1,"text":"Get me a Tesla!","timestamp":"1545665701747","user_ID":"99343078"},{"country":"United States","createdAt":"Tue Dec 25 23:17:13 +0000 2018","index":45,"latitude":37.014293,"longitude":-112.557092,"screen_name":"AAJPoe","sentiment":1,"text":"This #Tesla model 3 wasn\u2019t under the tree for me\u2014but I did get to take her out for an awesome drive today. An impre\u2026 https:\/\/t.co\/uhI8RAptxd","timestamp":"1545779833343","user_ID":"110007029"},{"country":"United Kingdom","createdAt":"Sat Jan 19 13:10:22 +0000 2019","index":46,"latitude":53.031355,"longitude":-3.018345,"screen_name":"VapeHuts","sentiment":1,"text":"#Tesla in town at @VapeHuts #Wrexham right now! Win a Spin in it + dinner for 4 \ud83d\ude03\n1. Take selfie with the @Tesla or\u2026 https:\/\/t.co\/CHLAIv88cR","timestamp":"1547903422026","user_ID":"1015915267812192257"},{"country":"United States","createdAt":"Wed Dec 26 18:35:05 +0000 2018","index":47,"latitude":33.704538,"longitude":-118.668404,"screen_name":"dorkycam","sentiment":1,"text":"You can use my Tesla referral link to get six months of free Supercharging on Model S, Model X or Model 3. You can\u2026 https:\/\/t.co\/Vzzu51LA2F","timestamp":"1545849305326","user_ID":"617909493"},{"country":"United Kingdom","createdAt":"Sat Dec 29 06:08:49 +0000 2018","index":48,"latitude":53.301534,"longitude":-2.564752,"screen_name":"chicamichelleb1","sentiment":1,"text":"Elon Musk, CEO of Tesla and SpaceX, has a net worth around $23.6 billion.\nMusk said in January he will not receive\u2026 https:\/\/t.co\/N9SOMF7vMi","timestamp":"1546063729790","user_ID":"996354420018425856"},{"country":"United States","createdAt":"Mon Jan 14 21:21:40 +0000 2019","index":49,"latitude":31.581663,"longitude":-97.109255,"screen_name":"jeffboichuk","sentiment":1,"text":"Thanks for the recommendation, @DMC_Ryan! Great episode this week!  Collin Street Bakery is so friendly to Tesla ow\u2026 https:\/\/t.co\/xpQzpuKD7C","timestamp":"1547500900819","user_ID":"922299968"},{"country":"United States","createdAt":"Fri Dec 28 22:02:41 +0000 2018","index":50,"latitude":26.080935,"longitude":-80.20811,"screen_name":"ChristiGalvan","sentiment":1,"text":"@Tesla @j_cisar My mans was RT\u2019d and liked by Tesla and Elon Musk. Never been prouder","timestamp":"1546034561909","user_ID":"1267883858"},{"country":"United States","createdAt":"Thu Dec 27 03:23:02 +0000 2018","index":51,"latitude":33.691774,"longitude":-117.944051,"screen_name":"drock3800","sentiment":1,"text":"I'm at @Tesla Supercharger in Santa Ana, Calif https:\/\/t.co\/5KhXGwqhd1","timestamp":"1545880982296","user_ID":"15420821"},{"country":"United States","createdAt":"Mon Jan 14 01:50:04 +0000 2019","index":52,"latitude":37.416515,"longitude":-122.228922,"screen_name":"NataliePropy","sentiment":1,"text":"When you had your hands off the Tesla wheel or bought your first iPhone and first Bitcoin, did you feel like being\u2026 https:\/\/t.co\/wd6Ylb3DQG","timestamp":"1547430604928","user_ID":"1275995491"},{"country":"Australia","createdAt":"Mon Dec 24 22:47:37 +0000 2018","index":53,"latitude":-28.200317,"longitude":153.186552,"screen_name":"troyhunt","sentiment":1,"text":"@willbank If the roadster ever gets built it\u2019ll be cool, but it\u2019ll also only have 2 seats. A good \u201cother car\u201d, no doubt \ud83d\ude42","timestamp":"1545691657764","user_ID":"14414286"},{"country":"United States","createdAt":"Thu Dec 27 02:09:14 +0000 2018","index":54,"latitude":35.831436,"longitude":-84.19397,"screen_name":"RossNesbit","sentiment":-1,"text":"@unwieldywildey @Tesla Don\u2019t think so? Not in my garage anyway (which is just an all-comers garage).","timestamp":"1545876554234","user_ID":"64108265"},{"country":"United States","createdAt":"Wed Jan 09 23:22:00 +0000 2019","index":55,"latitude":33.691774,"longitude":-117.944051,"screen_name":"juliovaught","sentiment":1,"text":"@elonmusk coincidence!? I THINK NOT! \ud83e\udd14\n\nMODEL S\nMODEL 3\nMODEL X\nMODEL Y\n\nYes @Tesla we get it. You\u2019re \u201cS3XY\u201d","timestamp":"1547076120334","user_ID":"4001024932"},{"country":"United States","createdAt":"Wed Jan 09 23:30:11 +0000 2019","index":56,"latitude":38.801826,"longitude":-77.119401,"screen_name":"lexiheft","sentiment":1,"text":"@elonmusk I can just hear @DMC_Ryan\u2019s podcast filling up with Tesla news this week as the tweets roll. \n\nComing on\u2026 https:\/\/t.co\/Wu4JgzSOFS","timestamp":"1547076611898","user_ID":"229232438"},{"country":"United States","createdAt":"Fri Feb 01 18:34:12 +0000 2019","index":57,"latitude":45.582501,"longitude":-122.713442,"screen_name":"chrisw442","sentiment":1,"text":"@russotalks @megnichole23 @Tesla Get a chevy bolt, save thousands and have somewhere to go if it breaks lol.","timestamp":"1549046052970","user_ID":"215503013"},{"country":"United States","createdAt":"Thu Jan 31 04:45:12 +0000 2019","index":58,"latitude":35.255821,"longitude":-119.172179,"screen_name":"allenrescue","sentiment":1,"text":"@elonmusk @Sofiaan @HyperChangeTV @Tesla @say When will the Model Y event be?","timestamp":"1548909912485","user_ID":"84135629"},{"country":"United States","createdAt":"Sat Jan 05 13:19:01 +0000 2019","index":59,"latitude":33.985534,"longitude":-84.286258,"screen_name":"popofibo","sentiment":1,"text":"Here @Tesla Model S test drive was amazing, was a little freaked out about the self driving especially the lane cha\u2026 https:\/\/t.co\/HbYZmfGHAL","timestamp":"1546694341684","user_ID":"105985180"},{"country":"Romania","createdAt":"Mon Dec 31 19:32:46 +0000 2018","index":60,"latitude":46.689965,"longitude":23.499253,"screen_name":"tudorvladarion","sentiment":1,"text":"How can I ghet a Tesla car?","timestamp":"1546284766327","user_ID":"999602711992717312"},{"country":"United States","createdAt":"Thu Dec 27 15:34:22 +0000 2018","index":61,"latitude":30.354161,"longitude":-91.218994,"screen_name":"JohnnaCrider1","sentiment":1,"text":"@Tesla Whoa so pretty. But I am glad I'm inside my warm cozy home and fuzzy unicorn slippers. \ud83d\ude02\ud83d\ude00","timestamp":"1545924862399","user_ID":"1957568797"},{"country":"Spain","createdAt":"Sat Jan 12 17:20:12 +0000 2019","index":62,"latitude":40.501348,"longitude":-3.701546,"screen_name":"martinvars","sentiment":-1,"text":"There is an anti electric car movement led by owners of gigantic pick up trucks who block charging stations. In thi\u2026 https:\/\/t.co\/2l6XPfOX6Y","timestamp":"1547313612992","user_ID":"781293"},{"country":"United States","createdAt":"Tue Jan 08 04:31:46 +0000 2019","index":63,"latitude":42.310982,"longitude":-71.625705,"screen_name":"t_ease","sentiment":1,"text":"@verge I\u2019ll wait for a pre-owned @Tesla model 3.","timestamp":"1546921906364","user_ID":"169078209"},{"country":"Thailand","createdAt":"Thu Jan 10 00:36:40 +0000 2019","index":64,"latitude":13.794157,"longitude":100.481902,"screen_name":"narutium","sentiment":1,"text":"@RevolutionTesla @GerberKawasaki Buy Tesla shares.","timestamp":"1547080600681","user_ID":"67263040"},{"country":"France","createdAt":"Fri Jan 18 16:58:56 +0000 2019","index":65,"latitude":48.815521,"longitude":2.224101,"screen_name":"HaydenElite87","sentiment":1,"text":"Views.... Car Shopping... Might Fuck around &amp; add this Roadster to the collection...\ud83d\ude48\ud83d\udcb8 Top down... St Tropez &amp; Mona\u2026 https:\/\/t.co\/DdRzplGBUt","timestamp":"1547830736044","user_ID":"26253607"},{"country":"United States","createdAt":"Thu Dec 27 00:30:39 +0000 2018","index":66,"latitude":30.455536,"longitude":-97.8817,"screen_name":"staypufd","sentiment":1,"text":"More people bought Tesla\u2019s though!  @elonmusk @Tesla #Tesla @TeslaOwnersClub","timestamp":"1545870639877","user_ID":"29516808"},{"country":"Canada","createdAt":"Mon Dec 31 12:32:03 +0000 2018","index":67,"latitude":45.099234,"longitude":-77.26479,"screen_name":"kevindunbar666","sentiment":1,"text":"@elonmusk @Tesla Trivia quiz. What are the most common names owners call their Teslas? I\u2019m betting on Tessie. Post the answer, for a lark.","timestamp":"1546259523680","user_ID":"1521886098"},{"country":"United States","createdAt":"Tue Jan 15 03:20:13 +0000 2019","index":68,"latitude":38.920717,"longitude":-84.413523,"screen_name":"Nate_Verst24","sentiment":1,"text":"@elonmusk I\u2019d love to have one of these cars, but school loans and other bills don\u2019t leave me much room for those k\u2026 https:\/\/t.co\/7u0q52Eyjz","timestamp":"1547522413895","user_ID":"386895823"},{"country":"United States","createdAt":"Wed Dec 26 19:13:15 +0000 2018","index":69,"latitude":35.255821,"longitude":-119.172179,"screen_name":"NdotJones","sentiment":1,"text":"@elonmusk can I get one from you as a late Christmas gift, my mustang is too much of a gas guzzler","timestamp":"1545851595839","user_ID":"2718102372"},{"country":"Nigeria","createdAt":"Sat Jan 19 14:14:08 +0000 2019","index":70,"latitude":8.093148,"longitude":4.1969,"screen_name":"Hardeborwale87","sentiment":1,"text":"Seem like my dream of working at @Tesla will finally come to pass @elonmusk","timestamp":"1547907248773","user_ID":"275591426"},{"country":"United States","createdAt":"Thu Jan 31 18:53:50 +0000 2019","index":71,"latitude":40.270674,"longitude":-74.080628,"screen_name":"goldentouch73","sentiment":1,"text":"@AlterViggo @GoldmanSachs Looks like buying #tesla when he says sell is a real money maker based on history.","timestamp":"1548960830819","user_ID":"1849282573"},{"country":"Austria","createdAt":"Sat Dec 29 21:15:39 +0000 2018","index":72,"latitude":48.117666,"longitude":16.18218,"screen_name":"NuovaRealta","sentiment":1,"text":"This video is the most hilarious\u2763\ufe0fone of the fantastic\u2763\ufe0fModelX ballet!! \ud83d\ude02\ud83e\udd23\ud83d\ude02\ud83e\udd23\ud83d\ude02\ud83e\udd23\ud83d\ude02\ud83e\udd23\ud83d\ude02\ud83e\udd23\ud83d\ude02\ud83d\udc9b\ud83e\udde1\ud83d\udc9c\ud83d\ude02\ud83e\udd23\ud83d\ude02\ud83e\udd23\ud83d\ude02\ud83e\udd23\ud83d\ude02 #ModelX","timestamp":"1546118139042","user_ID":"783475735"},{"country":"United States","createdAt":"Mon Dec 24 06:15:04 +0000 2018","index":73,"latitude":32.829815,"longitude":-96.706144,"screen_name":"titaniaskidmore","sentiment":1,"text":"Have you played a Tesla today? (On a brand new Tesla Model 3??) #TeslaModel3 #Tesla #TeslaMotors #tesla3\u2026 https:\/\/t.co\/9HH9SpN8et","timestamp":"1545632104553","user_ID":"2804575482"},{"country":"Canada","createdAt":"Thu Jan 03 00:12:36 +0000 2019","index":74,"latitude":43.724501,"longitude":-79.453498,"screen_name":"tbay25","sentiment":1,"text":"It was interesting visiting the @Tesla retail store in @YorkdaleStyle recently in Toronto. Very impressive vehicles\u2026 https:\/\/t.co\/8yKhdKpurX","timestamp":"1546474356424","user_ID":"33046856"},{"country":"United States","createdAt":"Thu Jan 17 02:21:02 +0000 2019","index":75,"latitude":25.996977,"longitude":-97.15779,"screen_name":"mclovinlopez","sentiment":1,"text":"Thank You @elonmusk for inspiring us &amp; for making a difference on this planet. #Tesla #SpaceX #StarshipHopper https:\/\/t.co\/j7UNOs8I2E","timestamp":"1547691662813","user_ID":"59506446"},{"country":"United States","createdAt":"Sat Dec 29 21:05:40 +0000 2018","index":76,"latitude":28.388218,"longitude":-81.507905,"screen_name":"rawculture","sentiment":1,"text":"@sk8boardt Tesla\u2019s are my dream car for sure I can\u2019t wait til they make a road-trip worthy SUV","timestamp":"1546117540964","user_ID":"2210759948"},{"country":"Romania","createdAt":"Wed Dec 26 08:36:00 +0000 2018","index":77,"latitude":46.689965,"longitude":23.499253,"screen_name":"MirceaTheOldMan","sentiment":1,"text":"Brain dead indeed. They haven't heard of @tesla air filtering system.","timestamp":"1545813360708","user_ID":"3433840935"},{"country":"Canada","createdAt":"Sat Dec 29 18:18:16 +0000 2018","index":78,"latitude":45.233261,"longitude":-73.411241,"screen_name":"vincent_philion","sentiment":-1,"text":"@doilookwasted @KathySarich @SheilaGunnReid You understand that competition for Tesla means more EVs, right? Kona,\u2026 https:\/\/t.co\/LckTGSVUVs","timestamp":"1546107496905","user_ID":"123429028"},{"country":"United States","createdAt":"Sat Dec 29 16:09:17 +0000 2018","index":79,"latitude":33.029009,"longitude":-112.079946,"screen_name":"TonyCrisostomo","sentiment":1,"text":"Supercharger in Payson Arizona opened yesterday!!! I\u2019ve been waiting for this one for a while!!","timestamp":"1546099757261","user_ID":"46157134"},{"country":"Colombia","createdAt":"Wed Jan 02 16:08:36 +0000 2019","index":80,"latitude":4.671528,"longitude":-75.774588,"screen_name":"juansequiceno","sentiment":1,"text":"@elonmusk Is there any possibility to be the official distributor in Colombia for all #Tesla cars? We are a profess\u2026 https:\/\/t.co\/JXDkwRA0uI","timestamp":"1546445316854","user_ID":"421357725"},{"country":"Canada","createdAt":"Tue Jan 15 00:43:39 +0000 2019","index":81,"latitude":43.977053,"longitude":-79.891914,"screen_name":"SeeminglyCursed","sentiment":-1,"text":"@tmlduda4 @goodolddays63 @gmbutts @Tesla It\u2019s such a small market, and such a big investment, it\u2019s no wonder the Bi\u2026 https:\/\/t.co\/KovqQp5pOO","timestamp":"1547513019241","user_ID":"3074107302"},{"country":"United States","createdAt":"Wed Jan 16 03:19:22 +0000 2019","index":82,"latitude":37.924231,"longitude":-122.066245,"screen_name":"mortchad","sentiment":1,"text":"@JohnnaCrider1 @TeslasocialC @Tesla @elonmusk Of course \/ thank you for your efforts and contributions to \u2018the fam\u2019","timestamp":"1547608762128","user_ID":"451261679"},{"country":"India","createdAt":"Sat Jan 19 04:16:22 +0000 2019","index":83,"latitude":26.642291,"longitude":80.658613,"screen_name":"abledoc","sentiment":-1,"text":"@GerberKawasaki I would say @elonmusk is disappointed that US demand for AWD &amp; LeMur weren\u2019t big enough to need an\u2026 https:\/\/t.co\/Hp2tqycmT0","timestamp":"1547871382676","user_ID":"19286530"},{"country":"United States","createdAt":"Tue Dec 25 04:27:06 +0000 2018","index":84,"latitude":31.332246,"longitude":-114.818269,"screen_name":"JNicoleLangley","sentiment":1,"text":"After my 11th hour driving the only thing i can say is i wish i had a Tesla right now","timestamp":"1545712026871","user_ID":"364641999"},{"country":"Australia","createdAt":"Thu Jan 17 02:59:17 +0000 2019","index":85,"latitude":-39.15919,"longitude":140.961682,"screen_name":"Se77Evans","sentiment":1,"text":"@weezmgk @Tesla One day I'll be able to get a bigger system with a battery. Looking faward to that day. \ud83d\ude42","timestamp":"1547693957937","user_ID":"1029628208"},{"country":"United Kingdom","createdAt":"Fri Dec 28 22:04:30 +0000 2018","index":86,"latitude":51.491866,"longitude":-0.351597,"screen_name":"ContactusEaling","sentiment":1,"text":"Took one of these @Tesla honeys out for a test drive on the roads of #WestLondon today (er, we didn\u2019t try the track\u2026 https:\/\/t.co\/5cjvadtc9k","timestamp":"1546034670222","user_ID":"830026656"},{"country":"Canada","createdAt":"Fri Jan 18 22:02:50 +0000 2019","index":87,"latitude":43.65954,"longitude":-79.397314,"screen_name":"UofTCompSci","sentiment":1,"text":"What sets @UofTHacks apart from other hackathons? They have a #Tesla. \ud83c\udfce Good luck to all hackers participating this\u2026 https:\/\/t.co\/t7OdmLhrCh","timestamp":"1547848970290","user_ID":"65638162"},{"country":"Australia","createdAt":"Fri Jan 18 01:54:46 +0000 2019","index":88,"latitude":-27.767441,"longitude":152.668523,"screen_name":"GenericGene","sentiment":1,"text":"Having test driven Tesla\u2019s with auto pilot &amp; ludicrous performance &amp; experiencing regenerative braking the future i\u2026 https:\/\/t.co\/7sy9IcBd1i","timestamp":"1547776486940","user_ID":"15451878"},{"country":"United States","createdAt":"Mon Jan 21 06:29:44 +0000 2019","index":89,"latitude":44.68627,"longitude":-85.721308,"screen_name":"JimWhit93473894","sentiment":-1,"text":"I think Musk is a charlatan and Tesla is a house of cards, but laying people off to avoid paying bonuses is common\u2026 https:\/\/t.co\/3ratQGoB6X","timestamp":"1548052184982","user_ID":"1062386310508355585"},{"country":"United States","createdAt":"Tue Jan 01 20:28:46 +0000 2019","index":90,"latitude":35.995476,"longitude":-95.774704,"screen_name":"GloriaP49210854","sentiment":-1,"text":"@elonmusk. Good afternoon Elon. A lot of people are praying you don't build that truck if it would \"stop (your) hea\u2026 https:\/\/t.co\/2yx1DKJQIw","timestamp":"1546374526952","user_ID":"1045776956225191936"},{"country":"United States","createdAt":"Mon Dec 24 04:46:39 +0000 2018","index":91,"latitude":32.528832,"longitude":-124.482003,"screen_name":"RexRoi3D","sentiment":1,"text":"Check our Tesla Model 3 Center Console Tray. Made in the USA https:\/\/t.co\/8nWghRlg7T\n#Tesla #Model3 #TeslaModel3","timestamp":"1545626799810","user_ID":"1035968038980317184"},{"country":"United States","createdAt":"Mon Dec 24 19:42:53 +0000 2018","index":92,"latitude":39.019753,"longitude":-77.369695,"screen_name":"appljd","sentiment":1,"text":"@elonmusk When do you expect that the S and X will have the Bluetooth car proximity unlock like the 3 ? Happy Holid\u2026 https:\/\/t.co\/3hPe8gIX0k","timestamp":"1545680573106","user_ID":"129283198"},{"country":"Belgium","createdAt":"Wed Dec 26 13:49:24 +0000 2018","index":93,"latitude":50.090019,"longitude":5.459224,"screen_name":"mgillet","sentiment":1,"text":"@elonmusk Merry Xmas ! All the Best from tiny but shining Belgium ! From all @TeslaClubBE Members.","timestamp":"1545832164217","user_ID":"16527332"},{"country":"United States","createdAt":"Sun Dec 30 01:27:32 +0000 2018","index":94,"latitude":37.039623,"longitude":-88.72501,"screen_name":"planeboy1","sentiment":1,"text":"How Model 3 gets made https:\/\/t.co\/LCV7vSlOWY via @YouTube","timestamp":"1546133252200","user_ID":"99523066"},{"country":"United States","createdAt":"Mon Jan 14 23:47:28 +0000 2019","index":95,"latitude":33.647503,"longitude":-84.576827,"screen_name":"InternationalJ0","sentiment":-1,"text":"Unrelated, but Teslas are making their way right down the depreciation curve. $40K gets you your choice of 1st gen Model S.","timestamp":"1547509648889","user_ID":"242862281"},{"country":"United States","createdAt":"Tue Jan 22 19:29:43 +0000 2019","index":96,"latitude":40.578043,"longitude":-75.4314,"screen_name":"MikeThompsonPgh","sentiment":-1,"text":"Tesla has the worst customer service in the industry.  They want their rental back.  When I said I was out of town,\u2026 https:\/\/t.co\/HDb8sAIMYP","timestamp":"1548185383708","user_ID":"3219988618"},{"country":"United States","createdAt":"Sat Feb 02 20:19:47 +0000 2019","index":97,"latitude":27.821353,"longitude":-82.620093,"screen_name":"Clifford2008","sentiment":-1,"text":"@shareef777 @thegrubbshow @Tesla This isn\u2019t a solar roof. Theyre solar panels","timestamp":"1549138787593","user_ID":"1157499864"},{"country":"\u9999\u6e2f","createdAt":"Fri Jan 04 01:48:55 +0000 2019","index":98,"latitude":22.252085,"longitude":114.109911,"screen_name":"Bigapple2la","sentiment":1,"text":"@uncleber @Tesla It\u2019s future.","timestamp":"1546566535625","user_ID":"1049182117"},{"country":"India","createdAt":"Fri Jan 18 23:20:39 +0000 2019","index":99,"latitude":26.177178,"longitude":80.125067,"screen_name":"Lovinutsav","sentiment":1,"text":"@elonmusk  hey ...sir what are your plans bringing Tesla to India...\ud83d\ude1a","timestamp":"1547853639920","user_ID":"4753435584"},{"country":"United States","createdAt":"Sat Jan 19 00:39:16 +0000 2019","index":100,"latitude":32.528832,"longitude":-124.482003,"screen_name":"MercaTrotter","sentiment":1,"text":"Take me back to Cali so I can chill in super sweet Tesla\u2019s w\/ mah super sweet frans and win super sweet Championshi\u2026 https:\/\/t.co\/q1N0UlqASE","timestamp":"1547858356692","user_ID":"353152431"},{"country":"United States","createdAt":"Sun Jan 13 07:42:52 +0000 2019","index":101,"latitude":32.53962,"longitude":-117.282538,"screen_name":"mystealthXflies","sentiment":1,"text":"@Manic_Marge @Tesla That's so awesome!","timestamp":"1547365372513","user_ID":"816875967335395328"},{"country":"Canada","createdAt":"Tue Jan 15 14:13:45 +0000 2019","index":102,"latitude":53.582462,"longitude":-114.051492,"screen_name":"slantholer69","sentiment":-1,"text":"@MMA_Realist @Numenor33 @DallasNChains @Tesla @elonmusk @criscyborg It would be different if they were efficient. I\u2026 https:\/\/t.co\/lomo931f6K","timestamp":"1547561625086","user_ID":"311289363"},{"country":"United States","createdAt":"Sat Dec 29 22:50:40 +0000 2018","index":103,"latitude":40.570842,"longitude":-74.041878,"screen_name":"TradeWithNinja","sentiment":-1,"text":"add $TSLA to that .62-6.40 sorry #ninjalert","timestamp":"1546123840794","user_ID":"814893508066680832"},{"country":"United States","createdAt":"Fri Jan 18 21:27:51 +0000 2019","index":104,"latitude":32.528832,"longitude":-124.482003,"screen_name":"varifrank","sentiment":-1,"text":"Musk has reached that magical point in his career where he has learned how to read a balance sheet:\n\nhttps:\/\/t.co\/DfgZgytjrs","timestamp":"1547846871905","user_ID":"17885604"},{"country":"United States","createdAt":"Sun Dec 23 21:31:09 +0000 2018","index":105,"latitude":32.53962,"longitude":-117.282538,"screen_name":"mystealthXflies","sentiment":1,"text":"@phibetakitten @Tesla Wow! With 40 I believe it would have a quick turnaround time at least \ud83d\ude42","timestamp":"1545600669931","user_ID":"816875967335395328"},{"country":"Indonesia","createdAt":"Tue Jan 15 02:42:37 +0000 2019","index":106,"latitude":-8.849261,"longitude":115.083847,"screen_name":"braddwyer","sentiment":-1,"text":"@xianrenaud @audreyrelax @Tesla @elonmusk I heard some rumors of \u201cengine tones\u201d  being played over an external spea\u2026 https:\/\/t.co\/eDUrHEFYML","timestamp":"1547520157341","user_ID":"26227716"},{"country":"\u05d9\u05e9\u05e8\u05d0\u05dc","createdAt":"Sun Dec 30 00:32:18 +0000 2018","index":107,"latitude":29.393973,"longitude":34.266924,"screen_name":"eliranngr","sentiment":1,"text":"@elonmusk Ready to buy, but Tesla doesn't deliver or sell to Israel. WHY?","timestamp":"1546129938295","user_ID":"919523760"},{"country":"Belize","createdAt":"Sat Dec 29 10:18:57 +0000 2018","index":108,"latitude":15.888752,"longitude":-89.224815,"screen_name":"alyssasmac","sentiment":1,"text":"Nobody flex harder than an AirPod and Tesla owner.","timestamp":"1546078737990","user_ID":"2564737385"},{"country":"United Kingdom","createdAt":"Sun Dec 23 08:30:31 +0000 2018","index":109,"latitude":53.343623,"longitude":-2.319934,"screen_name":"RobertMulligan5","sentiment":1,"text":"@mrcdevine @Tesla Brilliant!","timestamp":"1545553831590","user_ID":"454438319"},{"country":"United Kingdom","createdAt":"Tue Jan 01 16:10:14 +0000 2019","index":110,"latitude":56.048243,"longitude":-2.759702,"screen_name":"sadboykylo","sentiment":1,"text":"@thisdeadbird I can\u2019t wait for my car financing to finish so I can floor it to Tesla","timestamp":"1546359014069","user_ID":"113371031"},{"country":"United States","createdAt":"Tue Dec 25 13:41:40 +0000 2018","index":111,"latitude":45.421863,"longitude":-122.790065,"screen_name":"AxiomHorseMusic","sentiment":1,"text":"@XericideMusic @elonmusk NO YOU CANNOT TAKE THIS FROM ME ITS CHRISTMAS AND MIRACLES CAN HAPPEN","timestamp":"1545745300288","user_ID":"890005184004341761"},{"country":"United States","createdAt":"Sun Jan 20 17:13:27 +0000 2019","index":112,"latitude":40.683935,"longitude":-74.026675,"screen_name":"SWERVEyCHAMp","sentiment":1,"text":"I want a Tesla \ud83d\ude0a 2019 is my golden year\ud83e\udd29","timestamp":"1548004407141","user_ID":"485155370"},{"country":"Australia","createdAt":"Fri Jan 18 21:33:13 +0000 2019","index":113,"latitude":-38.433859,"longitude":144.593742,"screen_name":"dharsharbani","sentiment":-1,"text":"@elonmusk @Tesla My screen has gone blank and now driver console has frozen. Car is being driven on pure gut instin\u2026 https:\/\/t.co\/SwhptPhiHG","timestamp":"1547847193208","user_ID":"49583364"},{"country":"United Kingdom","createdAt":"Thu Jan 31 21:17:45 +0000 2019","index":114,"latitude":51.977226,"longitude":-2.034105,"screen_name":"b280c_2","sentiment":-1,"text":"1.5 years of Tesla ownership and despite trying not one referral code used.\u2639\ufe0f if anyone is teetering on the edge of\u2026 https:\/\/t.co\/N822fSteax","timestamp":"1548969465038","user_ID":"823169037517590528"},{"country":"United States","createdAt":"Thu Jan 31 21:35:52 +0000 2019","index":115,"latitude":35.018058,"longitude":-92.537713,"screen_name":"realtrevdawson","sentiment":1,"text":"I would buy a Tesla fr","timestamp":"1548970552108","user_ID":"2243816873"},{"country":"United States","createdAt":"Sun Jan 06 21:10:11 +0000 2019","index":116,"latitude":44.280315,"longitude":-94.507217,"screen_name":"therealamyzents","sentiment":1,"text":"Tesla owner says Autopilot automatically regained control after sliding out-of-control on ice - video\u2026 https:\/\/t.co\/I4ljJ3Qkgs","timestamp":"1546809011838","user_ID":"61343044"},{"country":"United States","createdAt":"Fri Dec 28 17:13:36 +0000 2018","index":117,"latitude":51.175093,"longitude":-179.231086,"screen_name":"freedomfirstAK","sentiment":1,"text":"@libertylineman Tesla was and still is the man.","timestamp":"1546017216217","user_ID":"924058492893249536"},{"country":"United Kingdom","createdAt":"Tue Jan 15 09:08:18 +0000 2019","index":118,"latitude":51.365799,"longitude":1.276074,"screen_name":"EVMaps","sentiment":1,"text":"Again @Tesla proves that it thinks like a software company, essential when more and more electronics make up a car.\u2026 https:\/\/t.co\/Q3e3n2wGeK","timestamp":"1547543298827","user_ID":"3776361976"},{"country":"France","createdAt":"Thu Jan 10 15:33:10 +0000 2019","index":119,"latitude":48.815521,"longitude":2.224101,"screen_name":"LegalKant","sentiment":1,"text":"#Tesla's Gigafactory 3 project in Shanghai will create thousands of high-quality jobs in #China\n\nChina will gain mo\u2026 https:\/\/t.co\/bWGe8klj1C","timestamp":"1547134390359","user_ID":"47359542"},{"country":"United States","createdAt":"Thu Jan 10 03:09:24 +0000 2019","index":120,"latitude":35.917793,"longitude":-115.158143,"screen_name":"alexcorral78","sentiment":1,"text":"@xtdisnkfe @elonmusk Once they accept bitcoin, I\u2019m in! Still in for my upcoming model X but would have happened sooner :)","timestamp":"1547089764013","user_ID":"1900220923"},{"country":"United States","createdAt":"Tue Jan 15 02:06:59 +0000 2019","index":121,"latitude":37.842368,"longitude":-122.10003,"screen_name":"kpereau","sentiment":1,"text":"@elonmusk I\u2019ll buy a Tesla car  when you get your tiles on my roof. Car, batteries, roof...I am small potatoes and can\u2019t get a response","timestamp":"1547518019140","user_ID":"322757471"},{"country":"Australia","createdAt":"Tue Jan 08 05:12:16 +0000 2019","index":122,"latitude":-34.118347,"longitude":150.520929,"screen_name":"SimonPato","sentiment":1,"text":"720s Maclaen - The Bear is back, Thanks mate, Fastest thing I have been in next to Tesla take off speed, ryanpaters\u2026 https:\/\/t.co\/EaGtzomr7d","timestamp":"1546924336351","user_ID":"2250063618"},{"country":"United States","createdAt":"Fri Dec 28 14:23:54 +0000 2018","index":123,"latitude":26.644671,"longitude":-80.2006,"screen_name":"DougKass","sentiment":-1,"text":"$TSLA The SEC is worthless. Larry Ellison a personal friend of Musk brought on as independent Director. The market\u2026 https:\/\/t.co\/mRDVkSqezl","timestamp":"1546007034259","user_ID":"19988458"},{"country":"Switzerland","createdAt":"Sat Dec 29 12:17:24 +0000 2018","index":124,"latitude":47.519353,"longitude":7.531697,"screen_name":"CruelaDeVilish","sentiment":1,"text":"The man himself #basel #switzerland\ud83c\udde8\ud83c\udded #tesla #science #respect #travel #enjoy #discover #explore #walking @ Basel,\u2026 https:\/\/t.co\/hQ9ELwz9tX","timestamp":"1546085844737","user_ID":"218376044"},{"country":"United States","createdAt":"Tue Jan 15 07:09:28 +0000 2019","index":125,"latitude":33.599493,"longitude":-116.323001,"screen_name":"jakkzsounds","sentiment":1,"text":"@Tesla @arntrela Y\u2019all sponsoring Tesla now ?","timestamp":"1547536168033","user_ID":"4425744678"},{"country":"India","createdAt":"Sun Dec 30 13:56:13 +0000 2018","index":126,"latitude":9.951796,"longitude":76.29584,"screen_name":"ssaig","sentiment":1,"text":"Got my @Tesla hoodie \ud83d\ude2c https:\/\/t.co\/RtPk7AFzxv","timestamp":"1546178173023","user_ID":"55244500"},{"country":"United States","createdAt":"Tue Jan 08 15:32:17 +0000 2019","index":127,"latitude":39.052962,"longitude":-84.710722,"screen_name":"WehbyJammin","sentiment":-1,"text":"For everyone\u2019s amusement the bottom of the current channel is around $300-$305 $TSLA","timestamp":"1546961537754","user_ID":"287843534"},{"country":"United States","createdAt":"Sat Jan 19 15:36:48 +0000 2019","index":128,"latitude":37.454962,"longitude":-122.069956,"screen_name":"stalephish","sentiment":1,"text":"Getting a tour of the teslamotors factory! This is amazing. \ud83d\ude97\ud83e\udd16\ud83c\udfed @ Tesla Factory https:\/\/t.co\/vk5nOtANvP","timestamp":"1547912208280","user_ID":"19009147"},{"country":"Poland","createdAt":"Wed Dec 26 09:53:34 +0000 2018","index":129,"latitude":54.234801,"longitude":20.768675,"screen_name":"StephenBisgrove","sentiment":-1,"text":"@simonahac @elonmusk Not enough charging stations.","timestamp":"1545818014448","user_ID":"611757060"},{"country":"United States","createdAt":"Thu Jan 10 06:12:53 +0000 2019","index":130,"latitude":32.53962,"longitude":-117.282538,"screen_name":"mystealthXflies","sentiment":1,"text":"@tesla_unplugged @Inelonwetrust__ So-Cal Tesla Club \u26a1\ufe0f\ud83c\udf89","timestamp":"1547100773063","user_ID":"816875967335395328"},{"country":"Canada","createdAt":"Thu Dec 27 20:52:15 +0000 2018","index":131,"latitude":50.84278,"longitude":-114.316038,"screen_name":"pipewrench80","sentiment":1,"text":"@elonmusk can you give me the Tesla truck when it\u2019s finally produced? Please. As well as a flame thrower. #tesla #makeatrucktesla","timestamp":"1545943935232","user_ID":"271750214"},{"country":"United States","createdAt":"Fri Jan 18 14:02:58 +0000 2019","index":132,"latitude":39.350749,"longitude":-119.953849,"screen_name":"JLMIndustrial","sentiment":1,"text":"@elonmusk Mr. Musk, I own 3 Tesla\u2019s and supply the GF. I want a power wall for my company to provide uninterrupted\u2026 https:\/\/t.co\/Kp8PJBJGX7","timestamp":"1547820178752","user_ID":"409611161"},{"country":"United States","createdAt":"Thu Dec 27 02:48:01 +0000 2018","index":133,"latitude":45.657895,"longitude":-122.552904,"screen_name":"jacobsee","sentiment":-1,"text":"I\u2019m pretty sure I want to stay with Audi, and I have some problems with Tesla\u2019s practices, but\u2026 I might as well giv\u2026 https:\/\/t.co\/2wJYlnX3j3","timestamp":"1545878881854","user_ID":"15024965"},{"country":"Polska","createdAt":"Tue Dec 25 18:33:55 +0000 2018","index":134,"latitude":50.07717,"longitude":18.922873,"screen_name":"achrobaczynski","sentiment":1,"text":"@elonmusk Have a Good Time &amp; take care! There\u2019s a lot of #goodwill for You, @SpaceX &amp; @Tesla \ud83c\udf84\ud83d\ude4c\ud83d\ude80\u26a1\ufe0f","timestamp":"1545762835260","user_ID":"761670504881217536"},{"country":"United States","createdAt":"Thu Jan 31 05:29:35 +0000 2019","index":135,"latitude":38.801826,"longitude":-77.119401,"screen_name":"lexiheft","sentiment":-1,"text":"@teslaownersSV @elonmusk @Sofiaan @HyperChangeTV @Tesla @say Hopefully not, but I suspect there\u2019s some kind of stai\u2026 https:\/\/t.co\/2Tiq0DrEzS","timestamp":"1548912575260","user_ID":"229232438"},{"country":"Japan","createdAt":"Mon Jan 07 12:55:26 +0000 2019","index":136,"latitude":35.781118,"longitude":139.84019,"screen_name":"octagon78","sentiment":1,"text":"Wow...\nTesla owner says Autopilot automatically regained control after sliding out-of-control on ice - video - Elec\u2026 https:\/\/t.co\/ArQhEHJvyS","timestamp":"1546865726800","user_ID":"122302959"},{"country":"Australia","createdAt":"Mon Jan 14 21:18:04 +0000 2019","index":137,"latitude":-34.118347,"longitude":150.520929,"screen_name":"fictillius","sentiment":1,"text":"I have a Tesla test drive today \ud83d\ude31","timestamp":"1547500684770","user_ID":"7050962"},{"country":"United Kingdom","createdAt":"Sat Jan 19 10:28:51 +0000 2019","index":138,"latitude":54.633631,"longitude":-7.660857,"screen_name":"RaymondHewitt","sentiment":1,"text":"One step closer to the #TeslaModel3 coming to the UK \ud83e\udd29\ud83d\ude97 #ElectricVehicles #Tesla","timestamp":"1547893731934","user_ID":"37918423"},{"country":"United States","createdAt":"Fri Jan 18 14:18:30 +0000 2019","index":139,"latitude":29.522325,"longitude":-95.823268,"screen_name":"PeteGarner","sentiment":-1,"text":"I'm filled this morning pre market on $TSLA pending order at $325.38. May be a long term hold.","timestamp":"1547821110218","user_ID":"59361331"},{"country":"United States","createdAt":"Wed Jan 02 00:27:36 +0000 2019","index":140,"latitude":36.573772,"longitude":-121.927092,"screen_name":"puddingisyummy","sentiment":-1,"text":"This is just straight stupid.  This is how fools get pulled out of trucks and curbed.\n\nAnti-Tesla pickup truck driv\u2026 https:\/\/t.co\/XG41OY3h58","timestamp":"1546388856377","user_ID":"57537469"},{"country":"United States","createdAt":"Mon Dec 24 23:52:04 +0000 2018","index":141,"latitude":33.704538,"longitude":-118.668404,"screen_name":"RexRoi3D","sentiment":1,"text":"@bowlryder Check out the Tesla Model 3 Tray that we have designed.\nHappy Holidays!!! \nhttps:\/\/t.co\/PctUXDto1V","timestamp":"1545695524583","user_ID":"1035968038980317184"},{"country":"United States","createdAt":"Sat Dec 29 10:44:09 +0000 2018","index":142,"latitude":30.23105,"longitude":-95.679001,"screen_name":"Devinenders","sentiment":1,"text":"Yea my sleeping schedule is fucked up but look I own a Tesla and I have wireless Apple headphones tho, like sit the\u2026 https:\/\/t.co\/V1MvMi6q98","timestamp":"1546080249200","user_ID":"18236340"},{"country":"India","createdAt":"Thu Jan 17 15:31:16 +0000 2019","index":143,"latitude":12.8357,"longitude":80.051102,"screen_name":"me_deepu","sentiment":-1,"text":"@downloadcue @Tesla @elonmusk will be heartbroken to see these posts from customers.","timestamp":"1547739076416","user_ID":"147445380"},{"country":"United States","createdAt":"Sun Jan 20 04:06:54 +0000 2019","index":144,"latitude":42.676375,"longitude":-73.832933,"screen_name":"stephenpallotta","sentiment":1,"text":"To people freaking out about supercharger cost.... it still only cost $1.15 for a full charge at home, calm your ti\u2026 https:\/\/t.co\/BgEsRDXCSE","timestamp":"1547957214597","user_ID":"18199493"},{"country":"Germany","createdAt":"Fri Dec 28 20:46:25 +0000 2018","index":145,"latitude":50.01552,"longitude":8.472715,"screen_name":"martinengwicht","sentiment":1,"text":"@bonnienorman Tesla should start selling more merchandise! \nWHo don't like snail fruit gummy :D","timestamp":"1546029985089","user_ID":"15567938"},{"country":"United States","createdAt":"Sun Jan 13 03:49:25 +0000 2019","index":146,"latitude":35.960753,"longitude":-115.316075,"screen_name":"jeremiahjsmith","sentiment":1,"text":"3 months into owning my #tesla and I've saved ~$750 on Gas compared to my old car (20mpg) travelling 5,000 miles. \ud83d\ude33\u2026 https:\/\/t.co\/ZvnfidGjma","timestamp":"1547351365180","user_ID":"30469270"},{"country":"United States","createdAt":"Tue Jan 01 15:00:01 +0000 2019","index":147,"latitude":29.522325,"longitude":-95.823268,"screen_name":"JamMackey","sentiment":1,"text":"@elonmusk @Tesla The Houston Tesla team didn\u2019t have time to gather for a photo. But we were there in spirit. I love being part of Team Tesla","timestamp":"1546354801951","user_ID":"32893272"},{"country":"United States","createdAt":"Tue Jan 22 19:39:51 +0000 2019","index":148,"latitude":37.362824,"longitude":-122.190523,"screen_name":"USDODCOINS","sentiment":1,"text":"A while back, we made an ~electrifying~ #challengecoin design for the good people of #Tesla Motors in high polished\u2026 https:\/\/t.co\/aXA3RfNfAz","timestamp":"1548185991477","user_ID":"718212480"},{"country":"United States","createdAt":"Sat Jan 05 14:00:18 +0000 2019","index":149,"latitude":36.786146,"longitude":-76.420402,"screen_name":"chris_stearns","sentiment":1,"text":"#FundingSecured day was one of my favorite days in 2018.\n\n$TSLA https:\/\/t.co\/BWCIOjj3O9","timestamp":"1546696818668","user_ID":"150048990"},{"country":"France","createdAt":"Sat Feb 02 21:33:52 +0000 2019","index":150,"latitude":43.31099,"longitude":-0.24408,"screen_name":"mmrusso57","sentiment":1,"text":"@elonmusk Elon, please will you let our friends in Other Europe order their Model \u2261? \ud83d\ude4f\ud83d\ude4f\ud83d\ude4f What\u2019s the hold?","timestamp":"1549143232404","user_ID":"2862137382"},{"country":"United States","createdAt":"Sun Jan 13 22:55:59 +0000 2019","index":151,"latitude":37.193164,"longitude":-122.035311,"screen_name":"DirtyBeatsSF","sentiment":1,"text":"@Ruby_Knox Thanks. Yup been with tesla about a year now","timestamp":"1547420159927","user_ID":"32286086"},{"country":"United States","createdAt":"Wed Jan 02 17:59:33 +0000 2019","index":152,"latitude":33.995177,"longitude":-118.517358,"screen_name":"iwillcloseyou","sentiment":-1,"text":"Tesla shares plunge as price cuts signal a ceiling for costlier models https:\/\/t.co\/m8xiQxbSoD via @Automotive_News","timestamp":"1546451973092","user_ID":"709264529"},{"country":"United States","createdAt":"Tue Dec 25 22:59:52 +0000 2018","index":153,"latitude":34.086988,"longitude":-117.704483,"screen_name":"MeniThings","sentiment":1,"text":"#iPadPro #iMovie edit of my track day using the #Tesla #Model3 built-in dash cam feature. #SpeedVentures https:\/\/t.co\/cPEULNleJz","timestamp":"1545778792704","user_ID":"14117525"},{"country":"United States","createdAt":"Thu Dec 27 05:11:39 +0000 2018","index":154,"latitude":37.193164,"longitude":-122.035311,"screen_name":"QualmesJr","sentiment":1,"text":"@gwestr Friends girlfriend won the lotto earlier in the year. I tried my hardest to pitch the Model S &amp; Model 3 to her... and failed.","timestamp":"1545887499690","user_ID":"389298644"},{"country":"Georgia","createdAt":"Mon Jan 21 18:43:10 +0000 2019","index":155,"latitude":41.053196,"longitude":40.006902,"screen_name":"Temo100888","sentiment":-1,"text":"@elonmusk hello\/\/i'm from Gerogia,,We not have Charger For your automobile,please Help,,,We need your Help","timestamp":"1548096190273","user_ID":"2236520198"},{"country":"United States","createdAt":"Thu Jan 03 05:36:09 +0000 2019","index":156,"latitude":30.354161,"longitude":-91.218994,"screen_name":"JohnnaCrider1","sentiment":1,"text":"@cleantechnica I heart model x","timestamp":"1546493769309","user_ID":"1957568797"},{"country":"United States","createdAt":"Mon Jan 07 11:27:15 +0000 2019","index":157,"latitude":41.647296,"longitude":-72.762431,"screen_name":"RobJeanpinc","sentiment":1,"text":"Very very bullish on Tesla love what @elonmusk does with this company. Every move debate me !","timestamp":"1546860435621","user_ID":"49771800"},{"country":"United States","createdAt":"Sun Feb 03 02:44:39 +0000 2019","index":158,"latitude":38.526843,"longitude":-121.803252,"screen_name":"mwgjerde","sentiment":1,"text":"Heck, we\u2019ve driven around the country in our model S with no problem!","timestamp":"1549161879721","user_ID":"2746746139"},{"country":"United States","createdAt":"Mon Dec 24 22:16:32 +0000 2018","index":159,"latitude":37.367357,"longitude":-94.724428,"screen_name":"SanjayAtPlay","sentiment":1,"text":"It\u2019s finally happened. \n\nI want a Model 3 with Enhanced Autopilot before I get the Murcielago. \n\nNew goal is empire ASAP, Lambo at 30.","timestamp":"1545689792364","user_ID":"342772333"},{"country":"United States","createdAt":"Mon Jan 07 02:24:13 +0000 2019","index":160,"latitude":33.704538,"longitude":-118.668404,"screen_name":"zedism","sentiment":1,"text":"@elonmusk I\u2019m waiting to trade in for a model T, assuming it\u2019s small enough for LA city driving.","timestamp":"1546827853748","user_ID":"92662198"},{"country":"United States","createdAt":"Mon Dec 31 15:27:57 +0000 2018","index":161,"latitude":39.799713,"longitude":-75.028078,"screen_name":"tommypace2003","sentiment":-1,"text":"@mbrucem @elonmusk @Tesla @Model3Owners @DMC_Ryan @bonnienorman I\u2019ll never know.  Can\u2019t afford one of those things. Have fun!","timestamp":"1546270077851","user_ID":"151711413"},{"country":"United Kingdom","createdAt":"Tue Jan 15 12:21:53 +0000 2019","index":162,"latitude":53.736369,"longitude":-1.706057,"screen_name":"LightStartApps","sentiment":1,"text":"Remodelling Business is next Thursday! \nWe're very excited to have @SandersonPLC and @Tesla as event partners for t\u2026 https:\/\/t.co\/9PPd3N90ee","timestamp":"1547554913816","user_ID":"727423704645382144"},{"country":"United States","createdAt":"Sun Feb 03 18:48:56 +0000 2019","index":163,"latitude":30.355644,"longitude":-85.605166,"screen_name":"tonyk2342","sentiment":1,"text":"My Model3 after Produxa. @ Alpharetta https:\/\/t.co\/e1U0nT3YvS","timestamp":"1549219736239","user_ID":"71129966"},{"country":"Canada","createdAt":"Sun Jan 06 15:32:40 +0000 2019","index":164,"latitude":43.366298,"longitude":-64.237659,"screen_name":"comeaujo","sentiment":-1,"text":"@t1apilot @GreenCarReports @Tesla It's this clever manipulation of headlines, then saving face in the body of the a\u2026 https:\/\/t.co\/YMjrNrYV4y","timestamp":"1546788760376","user_ID":"19372536"},{"country":"United States","createdAt":"Wed Jan 02 17:20:09 +0000 2019","index":165,"latitude":33.704538,"longitude":-118.668404,"screen_name":"TheRideshareGuy","sentiment":1,"text":"Kim, what about on top of your tesla? \ud83d\ude02 https:\/\/t.co\/16JJd0sC46","timestamp":"1546449609512","user_ID":"2488639729"},{"country":"United States","createdAt":"Sun Jan 06 19:36:34 +0000 2019","index":166,"latitude":39.871811,"longitude":-75.280284,"screen_name":"_MikeScioli","sentiment":1,"text":"@Jbfarmer10 @Tesla @elonmusk Teslas are like the safest cars on the road. Google: Tesla Crash Avoidance.\nMany dank videos will ensue.","timestamp":"1546803394256","user_ID":"338782978"},{"country":"United States","createdAt":"Fri Jan 18 23:49:21 +0000 2019","index":167,"latitude":30.609214,"longitude":-96.439644,"screen_name":"CesarHn95","sentiment":-1,"text":"@manishtanks I heard Tesla owes a ton of monney, I might be dumb but I'm skeptic of buying over 300 and expecting any profit","timestamp":"1547855361794","user_ID":"182076448"},{"country":"United States","createdAt":"Fri Feb 01 19:43:47 +0000 2019","index":168,"latitude":36.648905,"longitude":-119.93251,"screen_name":"JCKPhotographer","sentiment":1,"text":"What did you do last night? I captured a Model X saving the environment #tesla #vossenwheels #automotivephotography\u2026 https:\/\/t.co\/2heAUAm9W0","timestamp":"1549050227562","user_ID":"36224816"},{"country":"United States","createdAt":"Tue Jan 08 06:45:46 +0000 2019","index":169,"latitude":33.814689,"longitude":-118.401931,"screen_name":"teslaology","sentiment":1,"text":"@elonmusk  #NewProfilePic see a resemblance ? \ud83d\udc68\ud83c\udffb\u200d\ud83d\udcbc\n@Model3Owners \n @LikeTeslaKim \n  @bonnienorman \n@mytesladream\u2026 https:\/\/t.co\/Ptoq9rEBaD","timestamp":"1546929946499","user_ID":"835582779773472769"},{"country":"United States","createdAt":"Wed Dec 26 16:07:32 +0000 2018","index":170,"latitude":32.528832,"longitude":-124.482003,"screen_name":"wallstreetelix5","sentiment":-1,"text":"60% on $tsla shorting from 304 area. terrible -_-","timestamp":"1545840452682","user_ID":"886929750018674692"},{"country":"Kenya","createdAt":"Tue Jan 08 13:50:03 +0000 2019","index":171,"latitude":1.302967,"longitude":35.202208,"screen_name":"Nicholas_Pyeko","sentiment":-1,"text":"If @Tesla is eyeing for renewable energy @elonmusk should also have solar panels surround Tesla body in order to ha\u2026 https:\/\/t.co\/dSBI49FdQN","timestamp":"1546955403785","user_ID":"597581721"},{"country":"United States","createdAt":"Wed Dec 26 20:18:19 +0000 2018","index":172,"latitude":24.396308,"longitude":-87.634643,"screen_name":"StephenWeppler","sentiment":-1,"text":"@elonmusk We need to solve the ICEing problem at Chargers, any plan?","timestamp":"1545855499760","user_ID":"14316403"},{"country":"United States","createdAt":"Mon Jan 14 09:41:15 +0000 2019","index":173,"latitude":38.375981,"longitude":-82.530433,"screen_name":"gregghendry","sentiment":1,"text":"I\u2019ve never considered @Tesla that is, until now.","timestamp":"1547458875276","user_ID":"41965499"},{"country":"United States","createdAt":"Thu Jan 03 00:24:38 +0000 2019","index":174,"latitude":25.510691,"longitude":-80.428566,"screen_name":"RayRodStocks1","sentiment":1,"text":"$TSLA looks like a great short from here, $F a good entry, gets better from here on 2019 looks like a great year ahead. God bless...","timestamp":"1546475078207","user_ID":"1245176768"},{"country":"United Arab Emirates","createdAt":"Sat Jan 19 16:31:03 +0000 2019","index":175,"latitude":24.618253,"longitude":54.893973,"screen_name":"seniorleb","sentiment":1,"text":"Happy Electric Weekend \ud83d\ude80\n\u2014\u2014\u2014\u2014\u2014\u2014\u2014\u2014\u2014\u2014\u2014\u2014\u2014\u2014\u2014\u2014\u2014\u2014\u2014\u2014\u2014\u2014\u2014 #tesla #teslamodels #p100d #p100dl #teslamodel3 #teslamodelx\u2026 https:\/\/t.co\/P1k1fbsSFv","timestamp":"1547915463941","user_ID":"3274956800"},{"country":"United Kingdom","createdAt":"Sat Dec 29 23:26:12 +0000 2018","index":176,"latitude":51.243698,"longitude":-2.746961,"screen_name":"roderickadieu","sentiment":-1,"text":"@gusma @HeyGeno @falklands_utd Tesla is a loss leader.  The average Falklxnd Islander is wealthier and lives longer than any Argentinian","timestamp":"1546125972511","user_ID":"1339638313"},{"country":"United States","createdAt":"Mon Jan 21 00:25:10 +0000 2019","index":177,"latitude":32.530915,"longitude":-97.186747,"screen_name":"tommycummings","sentiment":1,"text":"I\u2019m thinking that I need a #Tesla, but my wife @KRLDBrigitte wants one for the wrong reasons. https:\/\/t.co\/t7ffxZQZQ5","timestamp":"1548030310875","user_ID":"14319762"},{"country":"United States","createdAt":"Fri Feb 01 11:18:16 +0000 2019","index":178,"latitude":38.801826,"longitude":-77.119401,"screen_name":"niubi","sentiment":-1,"text":"Tesla rival faces online heat as Nio smart car comes to  a halt in Beijing https:\/\/t.co\/ErJiKshlEM via @SCMPNews an\u2026 https:\/\/t.co\/xLDBVb3WoG","timestamp":"1549019896169","user_ID":"3512101"},{"country":"United States","createdAt":"Mon Jan 14 15:40:47 +0000 2019","index":179,"latitude":35.001706,"longitude":-81.046876,"screen_name":"djmagic704","sentiment":1,"text":"Engine cleaned. New SuperCharger belts!! GOTTA KEEP EM UP!!!!!!\n\n#TourDJ #Denali \n\n#TheBlackHughHefner or if you pr\u2026 https:\/\/t.co\/fYqmwvLI5O","timestamp":"1547480447002","user_ID":"296025027"},{"country":"United States","createdAt":"Thu Jan 31 16:01:57 +0000 2019","index":180,"latitude":38.45104,"longitude":-75.788756,"screen_name":"Dennie302","sentiment":1,"text":"2 and 7 and I\u2019m going back in time and inventing Google, Amazon, Facebook, Apple and Tesla.","timestamp":"1548950517713","user_ID":"22669851"},{"country":"United States","createdAt":"Sun Jan 13 04:39:59 +0000 2019","index":181,"latitude":34.366195,"longitude":-117.400338,"screen_name":"garylooooooove","sentiment":1,"text":"Drove a Tesla for the first time today and I definitely feel complete.","timestamp":"1547354399037","user_ID":"939318828286144512"},{"country":"United States","createdAt":"Thu Dec 27 20:17:11 +0000 2018","index":182,"latitude":32.057802,"longitude":-111.083219,"screen_name":"octaviomfuentes","sentiment":1,"text":"@elonmusk I was this close |\u2022| to placing an order for a Model 3 last night.  I'm making it a goal to do it in 2019\u2026 https:\/\/t.co\/8uwHnhxwfq","timestamp":"1545941831868","user_ID":"2435926105"},{"country":"France","createdAt":"Wed Jan 09 21:32:28 +0000 2019","index":183,"latitude":47.489314,"longitude":-0.549006,"screen_name":"Kamidh","sentiment":1,"text":"@philippecouge @JournalDuGeek @getapony @Moustachebikes @Tesla \ud83e\udd23\ud83e\udd23\ud83e\udd23","timestamp":"1547069548761","user_ID":"9286102"},{"country":"India","createdAt":"Thu Jan 31 16:27:41 +0000 2019","index":184,"latitude":26.642291,"longitude":80.658613,"screen_name":"abledoc","sentiment":-1,"text":"@orthereaboot @markbspiegel Ahuja had remarked during Q3 earnings call about leaving $TSLA and therefore this wasn't unanticipated.","timestamp":"1548952061734","user_ID":"19286530"},{"country":"United States","createdAt":"Sat Jan 12 16:50:57 +0000 2019","index":185,"latitude":39.832013,"longitude":-83.200169,"screen_name":"SATYA9177","sentiment":-1,"text":"@elonmusk why don\u2019t tesla release a software update for only fully self capability cars? and why releasing same sof\u2026 https:\/\/t.co\/yWjbSLNWdz","timestamp":"1547311857061","user_ID":"426406948"},{"country":"Canada","createdAt":"Sun Feb 03 02:57:19 +0000 2019","index":186,"latitude":49.175445,"longitude":-122.959983,"screen_name":"AlguireTim","sentiment":-1,"text":"It is official. #Tesla has produced a GAAP profit for 2 consecutive quarters.  PAY UP, @TeslaCharts. $TSLA #manup\u2026 https:\/\/t.co\/wAKpuo9DoD","timestamp":"1549162639219","user_ID":"609681053"},{"country":"United States","createdAt":"Tue Jan 15 00:43:45 +0000 2019","index":187,"latitude":30.127892,"longitude":-97.928935,"screen_name":"staypufd","sentiment":-1,"text":"Still slower than a Tesla Model S Performance model and barely faster than a Model 3 Performance model","timestamp":"1547513025299","user_ID":"29516808"},{"country":"United States","createdAt":"Sat Jan 19 07:34:41 +0000 2019","index":188,"latitude":37.447046,"longitude":-77.601044,"screen_name":"TimOster","sentiment":1,"text":"Sign up for a chance to experience a unique ice driving event with a @Tesla Model 3 &amp; Model S in Kemi, Finland. Win\u2026 https:\/\/t.co\/WNIww1XVj7","timestamp":"1547883281257","user_ID":"205667658"},{"country":"United States","createdAt":"Sat Jan 19 15:38:59 +0000 2019","index":189,"latitude":26.088262,"longitude":-80.330201,"screen_name":"bmaher0846","sentiment":-1,"text":"Tesla Is Cutting 3150 Jobs to Increase Model 3 Production https:\/\/t.co\/52AgIykcAB via @Car and Driver","timestamp":"1547912339690","user_ID":"602456357"},{"country":"United States","createdAt":"Fri Dec 28 16:44:22 +0000 2018","index":190,"latitude":39.12466,"longitude":-77.31732,"screen_name":"AlorsonnDanse","sentiment":1,"text":"Taking the #tesla on it\u2019s first road trip today \ud83e\udd1e\ud83c\udffd","timestamp":"1546015462657","user_ID":"28940394"},{"country":"United States","createdAt":"Sat Dec 29 16:57:58 +0000 2018","index":191,"latitude":41.46816,"longitude":-87.34372,"screen_name":"HossRindman","sentiment":1,"text":"Yo @Pacers - Got around to naming the #Model3 ! \n\n#Pacers #LetsGo https:\/\/t.co\/aXZTCKJk3N","timestamp":"1546102678576","user_ID":"375965657"},{"country":"Germany","createdAt":"Sat Jan 19 11:07:40 +0000 2019","index":192,"latitude":50.01552,"longitude":8.472715,"screen_name":"IchbinTimmii","sentiment":-1,"text":"@elonmusk @Tesla Tesla Model 3 trunk design flaw https:\/\/t.co\/tyBjqyGJMi via @YouTube","timestamp":"1547896060301","user_ID":"732693797319147520"},{"country":"United States","createdAt":"Tue Jan 15 23:46:09 +0000 2019","index":193,"latitude":43.42004,"longitude":-73.710993,"screen_name":"stephenpallotta","sentiment":1,"text":"Hey @Tesla ... this would be a nice place to charge, just sayin. https:\/\/t.co\/FuWNk3TrTM","timestamp":"1547595969130","user_ID":"18199493"},{"country":"United States","createdAt":"Tue Jan 01 10:38:55 +0000 2019","index":194,"latitude":21.254837,"longitude":-157.950476,"screen_name":"kyleigh_kash","sentiment":1,"text":"My Uber is driving a Tesla &amp; I got it for the regular rate lol","timestamp":"1546339135321","user_ID":"31011323"},{"country":"United States","createdAt":"Mon Dec 31 19:46:05 +0000 2018","index":195,"latitude":39.614151,"longitude":-105.109815,"screen_name":"seanmmitchell","sentiment":1,"text":"@elonmusk I am a happy Tesla owner. To prospective buyers, what questions can I answer for you? Give me your most difficult questions.","timestamp":"1546285565921","user_ID":"17206078"},{"country":"United States","createdAt":"Mon Jan 07 22:58:57 +0000 2019","index":196,"latitude":33.704538,"longitude":-118.668404,"screen_name":"briansbreakthru","sentiment":1,"text":"omfg davids tesla is at the appartment yall","timestamp":"1546901937508","user_ID":"1016918763038314496"},{"country":"United States","createdAt":"Thu Dec 27 05:03:58 +0000 2018","index":197,"latitude":37.886607,"longitude":-79.487651,"screen_name":"CostaKapo","sentiment":-1,"text":"If Elon Musk ever only focused on Tesla i would immediately sell my business.","timestamp":"1545887038896","user_ID":"61373394"},{"country":"United States","createdAt":"Sun Feb 03 10:45:43 +0000 2019","index":198,"latitude":33.973234,"longitude":-118.037546,"screen_name":"jeffznikekb27","sentiment":1,"text":"@Tesla @ConsumerReports Hi, I think the award by Consumer Reports is good. #Tesla","timestamp":"1549190743815","user_ID":"97781259"},{"country":"United States","createdAt":"Wed Dec 26 01:28:21 +0000 2018","index":199,"latitude":51.175093,"longitude":-179.231086,"screen_name":"KL7HD","sentiment":-1,"text":"@jatolion Check out \"Charles Proteus Steinmetz\", one of my relatives...Google or Youtube Him...When Tesla, Edison o\u2026 https:\/\/t.co\/bb4vgGIEEQ","timestamp":"1545787701380","user_ID":"20079174"},{"country":"United States","createdAt":"Sun Feb 03 00:43:08 +0000 2019","index":200,"latitude":47.626845,"longitude":-122.1649,"screen_name":"hunt18_ken","sentiment":1,"text":"Safest car ever tested \u2714\nBest selling car in USA \u2714\nHighest owner satisfaction \u2714\n\n#Model3 rocks \ud83e\udd18","timestamp":"1549154588409","user_ID":"803428640327233536"},{"country":"United States","createdAt":"Sat Dec 29 07:38:19 +0000 2018","index":201,"latitude":35.255821,"longitude":-119.172179,"screen_name":"AlguireTim","sentiment":1,"text":"@Vampyrgaming @Tesla Only at that supercharger.","timestamp":"1546069099593","user_ID":"609681053"},{"country":"United States","createdAt":"Sun Dec 30 23:21:18 +0000 2018","index":202,"latitude":38.639901,"longitude":-90.491849,"screen_name":"rabonin54","sentiment":1,"text":"@ThomboyD Yes, but I prefer my Tesla.","timestamp":"1546212078398","user_ID":"109065606"},{"country":"United States","createdAt":"Wed Jan 16 02:23:34 +0000 2019","index":203,"latitude":42.853187,"longitude":-71.220123,"screen_name":"xReadyPlayerOne","sentiment":-1,"text":"@Teslatunity @Tesla @Model3Owners Yes, multiple times. It goes to sleep. I think it is because there is no cell ser\u2026 https:\/\/t.co\/UvHNjPcCKo","timestamp":"1547605414685","user_ID":"851515702670487553"},{"country":"United States","createdAt":"Mon Dec 24 23:49:32 +0000 2018","index":204,"latitude":33.704538,"longitude":-118.668404,"screen_name":"RexRoi3D","sentiment":1,"text":"@stephenrwhite @Tesla @elonmusk Check out the Tesla Model 3 Tray that we have designed.\nHappy Holidays!!! \nhttps:\/\/t.co\/PctUXDto1V","timestamp":"1545695372360","user_ID":"1035968038980317184"},{"country":"Canada","createdAt":"Thu Jan 31 04:19:14 +0000 2019","index":205,"latitude":50.84278,"longitude":-114.316038,"screen_name":"tlsubasic","sentiment":1,"text":"@CFChinookCentre - keep the Tesla chargers.  It is the reason I choose your mall over others that are much closer!\u2026 https:\/\/t.co\/DivwqmKCSn","timestamp":"1548908354685","user_ID":"3067005420"},{"country":"United States","createdAt":"Thu Jan 17 12:27:19 +0000 2019","index":206,"latitude":42.442178,"longitude":-83.319904,"screen_name":"moviemanj","sentiment":1,"text":"@elonmusk @cleantechnica Thank you @elonmusk for taking the lead on electric cars. Soooo looking forward to buying my first #Tesla.","timestamp":"1547728039535","user_ID":"591728270"},{"country":"Republic of the Philippines","createdAt":"Sat Jan 19 11:40:16 +0000 2019","index":207,"latitude":14.433327,"longitude":120.974105,"screen_name":"darthduster","sentiment":-1,"text":"@BrianPendleton @Tesla I still think a spare tyre would be nice. How hard is it to fit a spare on the car with the most cargo space.","timestamp":"1547898016638","user_ID":"458629766"},{"country":"Espa\u00f1a","createdAt":"Mon Jan 21 16:49:53 +0000 2019","index":208,"latitude":40.83481,"longitude":-4.336763,"screen_name":"ashtaroth75","sentiment":1,"text":"@Tesla, @elonmusk please bring back the #Model3 #longrange #rwd https:\/\/t.co\/xaDY0ZA2NQ @slcuervo","timestamp":"1548089393172","user_ID":"379387935"},{"country":"United States","createdAt":"Mon Jan 14 01:10:41 +0000 2019","index":209,"latitude":33.788139,"longitude":-84.561205,"screen_name":"_Cheekaaa_","sentiment":-1,"text":"I just seen a Tesla with a baby seat in the back, who the fuck can afford both of those? \ud83d\ude2d","timestamp":"1547428241260","user_ID":"371111585"},{"country":"United States","createdAt":"Thu Jan 03 04:18:06 +0000 2019","index":210,"latitude":32.582128,"longitude":-117.117116,"screen_name":"cirena_gonzalez","sentiment":1,"text":"Loading up Darrius\u2019 car and I\u2019m getting so sad \ud83d\ude2d I know he\u2019s gunna do great things at Tesla and in Reno but imma miss him \ud83e\udd7a","timestamp":"1546489086751","user_ID":"2939019817"},{"country":"United States","createdAt":"Wed Dec 26 13:20:51 +0000 2018","index":211,"latitude":40.707292,"longitude":-73.682722,"screen_name":"gwestr","sentiment":1,"text":"Tesla vs Legacy Auto is a story of agile feature delivery vs waterfall. Fart app is an idea Elon had 2.5 months ago\u2026 https:\/\/t.co\/dZYHszbV35","timestamp":"1545830451116","user_ID":"254873442"},{"country":"United States","createdAt":"Tue Jan 08 04:12:06 +0000 2019","index":212,"latitude":42.082042,"longitude":-71.382165,"screen_name":"CiCiVanTine","sentiment":1,"text":"we have the geo thermal and the solar. Now for the Tesla battery.  #goals","timestamp":"1546920726902","user_ID":"908320044236537856"},{"country":"United States","createdAt":"Thu Dec 27 23:55:32 +0000 2018","index":213,"latitude":43.659354,"longitude":-114.411918,"screen_name":"rand","sentiment":1,"text":"@caitlininthebay @elonmusk @Tesla [Humble brag]","timestamp":"1545954932446","user_ID":"10428272"},{"country":"United States","createdAt":"Tue Jan 08 17:04:47 +0000 2019","index":214,"latitude":33.732905,"longitude":-118.250227,"screen_name":"OfeliaArizmendi","sentiment":1,"text":"@chingon_m Maybe get her a Tesla instead \ud83d\ude02","timestamp":"1546967087264","user_ID":"614856242"},{"country":"United States","createdAt":"Wed Jan 02 17:26:23 +0000 2019","index":215,"latitude":40.385071,"longitude":-79.819677,"screen_name":"comfy_habits","sentiment":1,"text":"tesla drivers: *actively making the world better with an electric car*\ntruck driving asshole americans: NOT ON MY FUCKING WATCH","timestamp":"1546449983318","user_ID":"2898813464"},{"country":"United States","createdAt":"Thu Dec 27 23:35:36 +0000 2018","index":216,"latitude":39.052962,"longitude":-84.710722,"screen_name":"WehbyJammin","sentiment":-1,"text":"The best #TeslaKiller is...@Tesla $TSLA","timestamp":"1545953736658","user_ID":"287843534"},{"country":"United States","createdAt":"Tue Jan 15 13:12:10 +0000 2019","index":217,"latitude":37.883347,"longitude":-121.416872,"screen_name":"Campy_the_Rat","sentiment":-1,"text":"@letsrebel1 @CathieDWood Ok let\u2019s here your $TSLA analysis ..I\u2019m not expecting much at all so no pressure..I\u2019ll get the popcorn \ud83c\udf7f out.","timestamp":"1547557930696","user_ID":"718835916077305856"},{"country":"United States","createdAt":"Fri Jan 18 09:27:42 +0000 2019","index":218,"latitude":40.18565,"longitude":-111.740949,"screen_name":"coolaj86","sentiment":-1,"text":"@WestSarahE @codinghorror @nytimes Gotta love them coal-powered Tesla\u2019s! All up-front emissions for toxic batteries\u2026 https:\/\/t.co\/swBhcf4Hqh","timestamp":"1547803662718","user_ID":"15191378"},{"country":"United States","createdAt":"Wed Jan 16 05:42:10 +0000 2019","index":219,"latitude":37.699279,"longitude":-122.34266,"screen_name":"dustyyy7","sentiment":1,"text":"let me get a Tesla @elonmusk","timestamp":"1547617330603","user_ID":"3259661750"},{"country":"Canada","createdAt":"Sat Jan 19 22:49:26 +0000 2019","index":220,"latitude":43.403221,"longitude":-79.639319,"screen_name":"HeyImTylerJames","sentiment":1,"text":"Another reason why I wish my Tesla model 3 would hurry up already. \nhttps:\/\/t.co\/p9JAT74edd","timestamp":"1547938166648","user_ID":"251423245"},{"country":"United States","createdAt":"Fri Jan 18 21:29:50 +0000 2019","index":221,"latitude":38.43792,"longitude":-121.576613,"screen_name":"stevehofbauer","sentiment":-1,"text":"Experts providing a briefing on Electric Vehicle Charging Infrastructure. Interesting explanation of various chargi\u2026 https:\/\/t.co\/miWEBXkxXx","timestamp":"1547846990675","user_ID":"23013703"},{"country":"United States","createdAt":"Fri Feb 01 19:55:41 +0000 2019","index":222,"latitude":32.315331,"longitude":-95.293285,"screen_name":"NaomiFrances1","sentiment":1,"text":"@Keubiko There\u2019s a product point where price ain\u2019t main factor\n\nFolk buyin $tsla ain\u2019t worried by price as folk buy\u2026 https:\/\/t.co\/vN1Q1E3HFz","timestamp":"1549050941706","user_ID":"499990851"},{"country":"United States","createdAt":"Thu Jan 03 03:34:22 +0000 2019","index":223,"latitude":37.708075,"longitude":-122.514926,"screen_name":"gwestr","sentiment":1,"text":"@ATX_fight_club @Viidakkotimppa @JayFaerber @Tesla Yeah it is. I still haven\u2019t gotten my performance spoiler or the\u2026 https:\/\/t.co\/jkn9Cf6Tht","timestamp":"1546486462832","user_ID":"254873442"},{"country":"Canada","createdAt":"Thu Dec 27 17:12:42 +0000 2018","index":224,"latitude":43.473802,"longitude":-80.326879,"screen_name":"EliRidder","sentiment":1,"text":"@Tesla hire me. I do Marketing.","timestamp":"1545930762359","user_ID":"886916124"},{"country":"United States","createdAt":"Tue Jan 22 01:40:18 +0000 2019","index":225,"latitude":33.704538,"longitude":-118.668404,"screen_name":"iamcram","sentiment":1,"text":"@ZumbaWithEric\u2019s #10YearChallenge #model3 https:\/\/t.co\/Qanlw0ph9N","timestamp":"1548121218622","user_ID":"48830476"},{"country":"United States","createdAt":"Mon Jan 14 00:03:38 +0000 2019","index":226,"latitude":30.10764,"longitude":-95.661376,"screen_name":"morgsumrall","sentiment":1,"text":"i just test drove a Tesla, while blasting @mattandkim through its 27 speakers and MAN do i feel alive rn","timestamp":"1547424218617","user_ID":"59240451"},{"country":"Norway","createdAt":"Tue Jan 22 11:41:24 +0000 2019","index":227,"latitude":59.809779,"longitude":10.491468,"screen_name":"Arnesenanton","sentiment":-1,"text":"@BoringPrufrock @MBjoremo @m_xalher @Tesla It is not worth the work. The market is so transparent that you nearly m\u2026 https:\/\/t.co\/YS1jbscqo7","timestamp":"1548157284082","user_ID":"360533388"},{"country":"United Kingdom","createdAt":"Sun Jan 06 09:56:35 +0000 2019","index":228,"latitude":51.977226,"longitude":-2.034105,"screen_name":"b280c_2","sentiment":1,"text":"@ellec_uk When the TeslaM3 goes into Europe it\u2019s going to outsell everything..Jaguar had the numbers over Tesla las\u2026 https:\/\/t.co\/DYZhOVRsFK","timestamp":"1546768595522","user_ID":"823169037517590528"},{"country":"United States","createdAt":"Sun Jan 06 23:12:35 +0000 2019","index":229,"latitude":32.057802,"longitude":-111.083219,"screen_name":"samanthanbhd","sentiment":1,"text":"i own both where\u2019s my tesla?????","timestamp":"1546816355496","user_ID":"3116548048"},{"country":"United States","createdAt":"Wed Dec 26 16:24:50 +0000 2018","index":230,"latitude":40.707292,"longitude":-73.682722,"screen_name":"gwestr","sentiment":1,"text":"@asknbid @cppinvest Then why is Germany copying the 2012 Model S for release in MY2022?","timestamp":"1545841490403","user_ID":"254873442"},{"country":"United States","createdAt":"Sat Feb 02 20:36:36 +0000 2019","index":231,"latitude":38.940225,"longitude":-77.158594,"screen_name":"Gabriel_Espana","sentiment":-1,"text":"China and energy demand, killing Tesla, sanctions on Venezuela, and solar power in the big freeze\u2026 https:\/\/t.co\/L8ZHRWcvs0","timestamp":"1549139796830","user_ID":"35750998"},{"country":"Canada","createdAt":"Wed Jan 09 23:46:41 +0000 2019","index":232,"latitude":49.001921,"longitude":-122.958937,"screen_name":"OGCryptor","sentiment":1,"text":"It's official.  If I ever somehow manage to get out from under this soul crushing debt I am buying a @Tesla!  I lov\u2026 https:\/\/t.co\/mqpHR9WYre","timestamp":"1547077601122","user_ID":"4515289154"},{"country":"United States","createdAt":"Sat Dec 29 04:24:06 +0000 2018","index":233,"latitude":40.495865,"longitude":-74.255641,"screen_name":"JuneAstaMarie","sentiment":1,"text":"Guess who bought their first @Tesla earlier today? \ud83d\ude4b\ud83c\udffc\u200d\u2640\ufe0f https:\/\/t.co\/BttqVQkE8l","timestamp":"1546057446970","user_ID":"92840862"},{"country":"Australia","createdAt":"Mon Jan 07 23:44:48 +0000 2019","index":234,"latitude":-27.767441,"longitude":152.668523,"screen_name":"treacl","sentiment":1,"text":"#Tesla #China #Shanghai #Gigafactory","timestamp":"1546904688805","user_ID":"16343574"},{"country":"United States","createdAt":"Sat Jan 19 18:07:37 +0000 2019","index":235,"latitude":38.618724,"longitude":-90.362321,"screen_name":"iiGETSHITDONE","sentiment":-1,"text":"Bruh it\u2019s hella clutch and pointless to have a Tesla, you get limited amount of miles to drive but save money cuzz it\u2019s electric","timestamp":"1547921257157","user_ID":"280815014"},{"country":"Ghana","createdAt":"Mon Dec 31 09:34:26 +0000 2018","index":236,"latitude":5.51713,"longitude":-0.347025,"screen_name":"MildredoBelle","sentiment":1,"text":"@Takyiwaa_Beww A white Tesla model x\u2764\ufe0f\u2764\ufe0f\u2764\ufe0fwith a white interior as welllll\ud83e\udd70","timestamp":"1546248866533","user_ID":"851718759480000512"},{"country":"United States","createdAt":"Sat Jan 05 23:08:20 +0000 2019","index":237,"latitude":38.403186,"longitude":-84.820309,"screen_name":"ericdavis221","sentiment":-1,"text":"Jan 04 Friday, $TSLA closed $317.69\n\nBearish target $299.00","timestamp":"1546729700587","user_ID":"885909416205316096"},{"country":"United States","createdAt":"Tue Jan 15 12:34:28 +0000 2019","index":238,"latitude":41.515957,"longitude":-85.91235,"screen_name":"Corey_Steinert","sentiment":1,"text":"@ScottHanson @elonmusk You want to get out of a 911 and into a Model X? C\u2019monnnnn man!","timestamp":"1547555668900","user_ID":"66195363"},{"country":"United States","createdAt":"Mon Dec 31 01:19:59 +0000 2018","index":239,"latitude":39.460879,"longitude":-106.0747,"screen_name":"Stealthwater","sentiment":-1,"text":"@Saba_Capital @Never_Sur_ender @Tesla I'm known for trolling. Though when i said my Tesla was dead? Of course it wa\u2026 https:\/\/t.co\/wdvgwJcg0H","timestamp":"1546219199058","user_ID":"570216473"},{"country":"Australia","createdAt":"Sun Dec 23 19:12:12 +0000 2018","index":240,"latitude":-27.767441,"longitude":152.668523,"screen_name":"SandraBravoTV","sentiment":1,"text":"Santa arrived early to Casa Bravo thanks to Amasssing!!! What a fantastic experience\nSo grateful for Tesla technolo\u2026 https:\/\/t.co\/Wdi6JQrwzm","timestamp":"1545592332339","user_ID":"3894883578"},{"country":"United States","createdAt":"Thu Jan 10 20:55:57 +0000 2019","index":241,"latitude":37.322943,"longitude":-122.005597,"screen_name":"SuzRoy","sentiment":1,"text":"@elonmusk I look forward to when autopilot works at stop signs and red lights.  Until then, it\u2019s saved just for the\u2026 https:\/\/t.co\/eSwT5jp4oN","timestamp":"1547153757407","user_ID":"26867799"},{"country":"United States","createdAt":"Mon Jan 07 23:20:17 +0000 2019","index":242,"latitude":30.355644,"longitude":-85.605166,"screen_name":"gjhrdn_","sentiment":1,"text":"still want my Tesla","timestamp":"1546903217161","user_ID":"297669119"},{"country":"South Africa","createdAt":"Wed Dec 26 20:57:07 +0000 2018","index":243,"latitude":-29.800967,"longitude":30.752486,"screen_name":"CaptainDurango","sentiment":1,"text":"@elonmusk When can we expect to see #Tesla in SA?\nDespite our #Eskom debacle.","timestamp":"1545857827303","user_ID":"39319577"},{"country":"Schweiz","createdAt":"Sat Jan 05 12:32:32 +0000 2019","index":244,"latitude":47.30748,"longitude":7.962519,"screen_name":"comtronicamaier","sentiment":1,"text":"Gonna test that right away with my 2016 Model S. I\u2018m sure I\u2018m gonna miss Track Mode from Model 3. \ud83d\ude09","timestamp":"1546691552664","user_ID":"3038770371"},{"country":"United States","createdAt":"Sat Jan 19 01:13:06 +0000 2019","index":245,"latitude":42.763657,"longitude":-73.983266,"screen_name":"stephenpallotta","sentiment":-1,"text":"@TalkTesla @elonmusk @Tesla Tesla has customer service?! I thought it was just a prank they played on you where the\u2026 https:\/\/t.co\/Fj7EjeifZs","timestamp":"1547860386949","user_ID":"18199493"},{"country":"United States","createdAt":"Tue Jan 15 01:16:02 +0000 2019","index":246,"latitude":40.683935,"longitude":-74.026675,"screen_name":"ladylaurengrace","sentiment":1,"text":"Haha, I remember this. he actually did it, he went out and bought a #tesla \ud83d\ude09\u2728\ud83d\ude98\ud83e\udd73","timestamp":"1547514962339","user_ID":"192819413"},{"country":"United States","createdAt":"Thu Dec 27 21:20:28 +0000 2018","index":247,"latitude":26.42166,"longitude":-82.114016,"screen_name":"adb1146","sentiment":1,"text":"@Teslatunity @TylerH Ok. So what does mean IYO for us Tesla owners? Feel free to exaggerate as it gets my hopes up.","timestamp":"1545945628891","user_ID":"18618781"},{"country":"United States","createdAt":"Tue Jan 08 22:12:23 +0000 2019","index":248,"latitude":40.541722,"longitude":-73.962582,"screen_name":"THEtrlppyIoner","sentiment":-1,"text":"I crashed the Tesla lldkskdnsjdbwjdnd this is why i don\u2019t drive","timestamp":"1546985543636","user_ID":"1013606344308461571"},{"country":"United States","createdAt":"Thu Dec 27 04:10:08 +0000 2018","index":249,"latitude":39.631677,"longitude":-86.348441,"screen_name":"tylerewigleben","sentiment":1,"text":"@elonmusk - the Indy @Tesla store cancelled my Model 3 test drive due to triple booking my appointment time. Good s\u2026 https:\/\/t.co\/PImYp2HPTh","timestamp":"1545883808614","user_ID":"74444959"},{"country":"United States","createdAt":"Thu Dec 27 04:54:16 +0000 2018","index":250,"latitude":32.892358,"longitude":-97.266092,"screen_name":"JMRichardson1","sentiment":1,"text":"@elonmusk I love my M3. Thank you sir!","timestamp":"1545886456410","user_ID":"338112514"},{"country":"United Kingdom","createdAt":"Thu Jan 31 21:47:12 +0000 2019","index":251,"latitude":51.412339,"longitude":-1.065041,"screen_name":"mrbrandbrown","sentiment":-1,"text":"@rs_hole @bphabsy Fear not, a Tesla wouldn\u2019t make it this far. In a Prius. https:\/\/t.co\/Zl4GrtINPM","timestamp":"1548971232181","user_ID":"947470009"},{"country":"United States","createdAt":"Wed Jan 09 23:16:17 +0000 2019","index":252,"latitude":24.396308,"longitude":-87.634643,"screen_name":"PatrickGQ","sentiment":1,"text":"yo!! you can buy a @Tesla online \ud83e\udd2f https:\/\/t.co\/3yqYxqsoCP","timestamp":"1547075777852","user_ID":"1081193430745780231"},{"country":"United States","createdAt":"Mon Dec 24 23:46:23 +0000 2018","index":253,"latitude":33.704538,"longitude":-118.668404,"screen_name":"RexRoi3D","sentiment":1,"text":"@IAmAnnaBauer @elonmusk @Tesla Check out the Tesla Model 3 Tray that we have designed.\nHappy Holidays!!! \nhttps:\/\/t.co\/PctUXDto1V","timestamp":"1545695183667","user_ID":"1035968038980317184"},{"country":"United States","createdAt":"Mon Dec 24 17:16:40 +0000 2018","index":254,"latitude":32.53962,"longitude":-117.282538,"screen_name":"Manic_Marge","sentiment":1,"text":"@teslaownersSV @Tesla @elonmusk @mayemusk @vincent13031925 @Inelonwetrust__ This is awesome lol what a great way to\u2026 https:\/\/t.co\/CQiWcuM7P3","timestamp":"1545671800904","user_ID":"596204926"},{"country":"United States","createdAt":"Sat Dec 29 15:01:21 +0000 2018","index":255,"latitude":35.255821,"longitude":-119.172179,"screen_name":"AlguireTim","sentiment":-1,"text":"@thenewc0l0mb0 @Tesla Not a bear? Haha","timestamp":"1546095681926","user_ID":"609681053"},{"country":"United States","createdAt":"Thu Jan 03 18:35:01 +0000 2019","index":256,"latitude":33.563618,"longitude":-117.958219,"screen_name":"samuelhubinette","sentiment":1,"text":"Our Tesla taking me for a ride today \ud83d\ude00 #teslamodelx #p100d #technology @ Newport Beach, California https:\/\/t.co\/MN4AgomJ68","timestamp":"1546540501530","user_ID":"24568841"},{"country":"United States","createdAt":"Tue Jan 15 20:38:54 +0000 2019","index":257,"latitude":42.853187,"longitude":-71.220123,"screen_name":"xReadyPlayerOne","sentiment":-1,"text":"@Tesla @Teslatunity @Model3Owners so every time I go down to my model 3, if it is NOT plugged in, it takes over a m\u2026 https:\/\/t.co\/t7Rq2onMQU","timestamp":"1547584734811","user_ID":"851515702670487553"},{"country":"United States","createdAt":"Mon Dec 24 01:21:40 +0000 2018","index":258,"latitude":39.719801,"longitude":-80.519851,"screen_name":"auker_a","sentiment":1,"text":"@yanquetino @Tesla Good stuff\ud83d\ude4c\ud83c\udffb\u2665\ufe0f","timestamp":"1545614500379","user_ID":"3060092994"},{"country":"United States","createdAt":"Sat Dec 29 22:31:23 +0000 2018","index":259,"latitude":32.04683,"longitude":-83.353955,"screen_name":"GabyonthemunGo","sentiment":-1,"text":"I had to delete a tweet because it was about @Tesla and all these trolls couldn\u2019t stop!!! And my friend was dragged too! @carasonlehmann","timestamp":"1546122683118","user_ID":"15048786"},{"country":"Italy","createdAt":"Wed Jan 16 06:31:54 +0000 2019","index":260,"latitude":45.386726,"longitude":9.040628,"screen_name":"RahulBrahmane","sentiment":1,"text":"@bhavis Yess. Tesla, I love it","timestamp":"1547620314992","user_ID":"320869887"},{"country":"United States","createdAt":"Sun Dec 30 17:28:21 +0000 2018","index":261,"latitude":27.509901,"longitude":-82.549081,"screen_name":"PaulGorlinsky","sentiment":1,"text":"Elon Musk's Teslas fart in 'Emissions Testing Mode' https:\/\/t.co\/ssRsEQvqUd via @YouTube\n\nI read this that\u2026 https:\/\/t.co\/RuSSnRV2OY","timestamp":"1546190901755","user_ID":"571052909"},{"country":"United States","createdAt":"Tue Jan 08 17:48:38 +0000 2019","index":262,"latitude":36.107582,"longitude":-115.116116,"screen_name":"RAETHED0N","sentiment":-1,"text":"if i was in a Tesla, shit probably","timestamp":"1546969718521","user_ID":"1661346547"},{"country":"United States","createdAt":"Fri Dec 28 21:15:07 +0000 2018","index":263,"latitude":35.994568,"longitude":-87.022482,"screen_name":"ericchorton1","sentiment":1,"text":"@elonmusk Let\u2019s bring on a Veteran hiring specialist to Team Tesla! How can I help you Elon?","timestamp":"1546031707693","user_ID":"305352750"},{"country":"United States","createdAt":"Sun Jan 06 03:57:58 +0000 2019","index":264,"latitude":29.522325,"longitude":-95.823268,"screen_name":"djbuddhaTX","sentiment":1,"text":"#watching #rockets in my #tesla #fireplace #mode \ud83d\udd25\ud83e\udd18\ud83c\udffe\ud83d\ude80 @ Tesla Motors https:\/\/t.co\/auNZTM9fGL","timestamp":"1546747078427","user_ID":"199438862"},{"country":"United States","createdAt":"Sat Feb 02 14:58:21 +0000 2019","index":265,"latitude":36.997905,"longitude":-114.052999,"screen_name":"blairbrian","sentiment":1,"text":"Being driven by a @Tesla in autopilot (with navigate) turns \u201cdriving\u201d into a relaxing exercise as you hand over tru\u2026 https:\/\/t.co\/mVKkcIIsoc","timestamp":"1549119501086","user_ID":"23791541"},{"country":"United States","createdAt":"Fri Jan 18 03:56:44 +0000 2019","index":266,"latitude":37.708075,"longitude":-122.514926,"screen_name":"J_O_Hernandez","sentiment":1,"text":"@SuperSaf @Tesla @elonmusk You can use my Tesla referral link to get six months of free Supercharging Model S or X. https:\/\/t.co\/e69EnnDA6p","timestamp":"1547783804379","user_ID":"2211457159"},{"country":"United States","createdAt":"Sat Dec 29 03:01:24 +0000 2018","index":267,"latitude":47.495315,"longitude":-122.436232,"screen_name":"teslataxisea","sentiment":1,"text":"@mayemusk @tesla_unplugged @Tesla Oh yes and I forgot to mention the beauty of @plugshare gives you access to more\u2026 https:\/\/t.co\/MVMTPKIoBl","timestamp":"1546052484041","user_ID":"904373812912840705"},{"country":"United States","createdAt":"Sun Dec 30 23:09:12 +0000 2018","index":268,"latitude":42.578183,"longitude":-82.901433,"screen_name":"achambry","sentiment":1,"text":"@TeamJuJu went from riding a bike to driving a Tesla and that\u2019s the kind of glow up I need\ud83d\ude0d","timestamp":"1546211352079","user_ID":"261447542"},{"country":"United States","createdAt":"Mon Jan 21 01:23:38 +0000 2019","index":269,"latitude":40.570842,"longitude":-74.041878,"screen_name":"obspbg","sentiment":1,"text":"Nice company, Tesla.","timestamp":"1548033818067","user_ID":"2281267975"},{"country":"United States","createdAt":"Mon Jan 07 19:33:51 +0000 2019","index":270,"latitude":33.704538,"longitude":-118.668404,"screen_name":"MalcolmHensley8","sentiment":1,"text":"@andewanderer @realDonaldTrump I\u2019ll put my Tesla up against any German Car &amp; the cars the German\u2019s make here are great also!","timestamp":"1546889631391","user_ID":"914949527987150848"},{"country":"United States","createdAt":"Fri Dec 28 04:31:06 +0000 2018","index":271,"latitude":33.986614,"longitude":-118.390235,"screen_name":"drivingmzstacey","sentiment":-1,"text":"Hey @Tesla we are at the Culver City Supercharger and Bay 6A AND 4A are out of service. It would be nice if this we\u2026 https:\/\/t.co\/n03pIVDxy7","timestamp":"1545971466423","user_ID":"807734012311502849"},{"country":"United States","createdAt":"Thu Dec 27 11:37:30 +0000 2018","index":272,"latitude":42.15223,"longitude":-87.852247,"screen_name":"mattmilsap","sentiment":1,"text":"@Rss10R @Tesla @elonmusk check out my delivery shot (sitting inside the car). you can tell I was on cloud nine even\u2026 https:\/\/t.co\/BW6xPmaGus","timestamp":"1545910650531","user_ID":"131181656"},{"country":"United States","createdAt":"Wed Jan 23 00:08:50 +0000 2019","index":273,"latitude":44.280315,"longitude":-94.507217,"screen_name":"therealamyzents","sentiment":1,"text":"A supid creep parked so close  my husband couldn't get in thank God we have a #Tesla #summoned https:\/\/t.co\/2LRWALf9Ma","timestamp":"1548202130377","user_ID":"61343044"},{"country":"United States","createdAt":"Sun Dec 23 14:11:15 +0000 2018","index":274,"latitude":24.396308,"longitude":-87.634643,"screen_name":"ChagoDyne","sentiment":1,"text":"I want a Tesla now.","timestamp":"1545574275763","user_ID":"462098772"},{"country":"United States","createdAt":"Tue Jan 22 19:05:15 +0000 2019","index":275,"latitude":40.567656,"longitude":-74.294367,"screen_name":"goldentouch73","sentiment":-1,"text":"Multiple bull analysts remain strong on #Tesla.","timestamp":"1548183915302","user_ID":"1849282573"},{"country":"United States","createdAt":"Sat Dec 29 06:13:36 +0000 2018","index":276,"latitude":37.924231,"longitude":-122.066245,"screen_name":"mortchad","sentiment":1,"text":"@Tesla Is it possible to schedule a tour if we already have a car?","timestamp":"1546064016339","user_ID":"451261679"},{"country":"United States","createdAt":"Sat Jan 12 19:14:50 +0000 2019","index":277,"latitude":33.523442,"longitude":-79.087697,"screen_name":"hadgins_kalsey","sentiment":1,"text":"@elonmusk, I saw this @Tesla last night at a gig. Best license plate possible? https:\/\/t.co\/QTBKNswG3d","timestamp":"1547320490049","user_ID":"1896614444"},{"country":"Canada","createdAt":"Sun Feb 03 16:53:49 +0000 2019","index":278,"latitude":44.961937,"longitude":-76.353876,"screen_name":"north_fam_BP","sentiment":-1,"text":"@renewelectrons @Tesla @UCSUSA @BillNye @jimmyodea will the owners tours be the next thing #Tesla cuts? \nI'm gonna\u2026 https:\/\/t.co\/UhoJge7Rxv","timestamp":"1549212829474","user_ID":"777983270126546944"},{"country":"United States","createdAt":"Tue Jan 15 19:46:37 +0000 2019","index":279,"latitude":47.558982,"longitude":-120.690788,"screen_name":"josehluna","sentiment":1,"text":"I guess, #Tesla has partnered with other auto makers #TeslaCharging are being used. Only in #Leavenworth . https:\/\/t.co\/qXXlXAGV4a","timestamp":"1547581597886","user_ID":"51301159"},{"country":"United States","createdAt":"Sun Feb 03 10:41:19 +0000 2019","index":280,"latitude":35.275905,"longitude":-82.420763,"screen_name":"doyendon","sentiment":1,"text":"@joerogan Another convert.  Until you experience driving a Tesla, it isn't possible to truly understand how revolut\u2026 https:\/\/t.co\/wjPgSg3rr5","timestamp":"1549190479988","user_ID":"262226916"},{"country":"Deutschland","createdAt":"Sat Jan 12 13:27:37 +0000 2019","index":281,"latitude":50.01552,"longitude":8.472715,"screen_name":"fletcher","sentiment":1,"text":"I'm at Tesla Store - @teslamotors in Frankfurt https:\/\/t.co\/1tp1gMNpt9","timestamp":"1547299657976","user_ID":"618563"},{"country":"India","createdAt":"Thu Jan 03 22:57:31 +0000 2019","index":282,"latitude":22.088382,"longitude":73.048892,"screen_name":"kamaltiwari710","sentiment":1,"text":"@InsideEVs @Tesla Excellent growth...\ud83e\udd13\ud83e\udd13\ud83d\udc4c\ud83d\udc4c\ud83e\udd18","timestamp":"1546556251253","user_ID":"807826885891813376"},{"country":"United States","createdAt":"Mon Jan 14 17:16:02 +0000 2019","index":283,"latitude":21.254837,"longitude":-157.950476,"screen_name":"waydavis","sentiment":-1,"text":"Tesla Semi receives warning from Daimler Trucks CEO on 'difficult' trucking market https:\/\/t.co\/H4NVCOQkbb via @Teslarati","timestamp":"1547486162904","user_ID":"18796945"},{"country":"United States","createdAt":"Fri Jan 18 22:57:41 +0000 2019","index":284,"latitude":39.63067,"longitude":-86.458669,"screen_name":"ryancarlmercer","sentiment":-1,"text":"@BrianPendleton @Tesla Ugh. Had a tye blow up in me an hour ago. Sitting at a tyre shop. No Tesla just Chevy \ud83d\ude2d \ud83d\ude2d \ud83d\ude2d","timestamp":"1547852261427","user_ID":"38545496"},{"country":"United States","createdAt":"Sat Dec 29 15:38:53 +0000 2018","index":285,"latitude":35.255821,"longitude":-119.172179,"screen_name":"AlguireTim","sentiment":1,"text":"@MKBHD @Tesla Thanks. Yes grateful to see it in person.  Makes me a rare Canadian \ud83c\udde8\ud83c\udde6 that\u2019s see her.","timestamp":"1546097933814","user_ID":"609681053"},{"country":"Republic of the Philippines","createdAt":"Tue Jan 15 04:11:51 +0000 2019","index":286,"latitude":10.67894,"longitude":122.49795,"screen_name":"bri_intencion","sentiment":1,"text":"thinking of getting a tesla model x or im gonna wait for the y. \n\n*bomb, wow rich!* \ud83d\ude02","timestamp":"1547525511970","user_ID":"470836104"},{"country":"United States","createdAt":"Sat Feb 02 00:15:13 +0000 2019","index":287,"latitude":37.757477,"longitude":-81.220519,"screen_name":"Bkin87","sentiment":1,"text":"@ClarkDennisM I wish Tesla could start doing trade ins, and it could be an incentive to get rid of ICE vehicles and\u2026 https:\/\/t.co\/QuDTLslpEV","timestamp":"1549066513010","user_ID":"879787940427247616"},{"country":"United States","createdAt":"Tue Jan 15 05:43:32 +0000 2019","index":288,"latitude":32.53962,"longitude":-117.282538,"screen_name":"tesla_unplugged","sentiment":1,"text":"@gio_tbilisi @marc_benton @teslafi I'm not worried. 40.4% of the Model 3 fleet is on 48.12.1. They roll them out in\u2026 https:\/\/t.co\/ReRvz2VrgC","timestamp":"1547531012206","user_ID":"1000238794556129280"},{"country":"United States","createdAt":"Sun Dec 23 22:45:13 +0000 2018","index":289,"latitude":39.631677,"longitude":-86.348441,"screen_name":"Im_JustJim","sentiment":-1,"text":"@chadkirchner iPhone cultists are the same as Tesla cultists.","timestamp":"1545605113898","user_ID":"271795626"},{"country":"United States","createdAt":"Wed Dec 26 16:52:14 +0000 2018","index":290,"latitude":40.121825,"longitude":-85.461887,"screen_name":"AndrewSmithNews","sentiment":1,"text":"I want a @Tesla now","timestamp":"1545843134163","user_ID":"4276023509"},